no,address,latitude,longitude
13130,서울특별시 노원구 석계로 49,37.61721774,127.0625099
13131,서울특별시 노원구 마들로 111,37.62383436,127.0647781
13132,서울특별시 은평구 연서로 455,37.63739537,126.933915
13133,서울특별시 은평구 진관2로 90,37.63380608,126.9256884
13134,서울특별시 은평구 진관4로 48-50,37.64320408,126.9292088
13135,서울특별시 은평구 진관4로 48-8,37.64395706,126.9282127
13136,서울특별시 은평구 갈현로1길 31,37.59873617,126.9061658
13137,서울특별시 은평구 진흥로 37-1,37.60090312,126.919436
13138,서울특별시 노원구 덕릉로115다길 40,37.66863592,127.0782058
13139,서울특별시 노원구 동일로239나길 31,37.67737143,127.0515565
13140,서울특별시 도봉구 시루봉로 8,37.65109303,127.029297
13141,서울특별시 도봉구 해등로 242-11,37.65896148,127.0293445
13142,서울특별시 도봉구 해등로25길 36,37.65579841,127.0317586
13143,서울특별시 노원구 덕릉로94가길 20,37.66250643,127.0781111
13144,서울특별시 노원구 수락산로 234,37.67192885,127.0526485
13145,서울특별시 노원구 노해로 508,37.65470356,127.066191
13146,서울특별시 노원구 동일로216길 47,37.65298873,127.0635586
13147,서울특별시 노원구 동일로214길 21,37.65043289,127.0627594
13148,서울특별시 노원구 동일로215길 48,37.65082219,127.0561606
13149,서울특별시 노원구 동일로215길 23,37.6504273,127.059109
13150,서울특별시 노원구 한글비석로 530,37.66693298,127.0591649
13151,서울특별시 은평구 백련산로 160,37.5983345,126.9259201
13152,서울특별시 은평구 백련산로2길 19,37.59247684,126.9252695
13153,서울특별시 노원구 덕릉로 780,37.66669198,127.079126
13154,서울특별시 노원구 한글비석로 396,37.66230302,127.0735817
13155,서울특별시 노원구 노원로 428,37.65449462,127.0681033
13156,서울특별시 노원구 동일로245가길 41,37.68066639,127.0538014
13157,서울특별시 노원구 덕릉로 459-21,37.64630285,127.0589625
13158,서울특별시 노원구 노원로 564,37.66165211,127.0561247
13159,서울특별시 서대문구 가재울로 45,37.57566143,126.9208517
13160,서울특별시 은평구 은평터널로 65,37.58689948,126.8991669
13161,서울특별시 서대문구 거북골로14길 32,37.57695108,126.9145953
13162,서울특별시 서대문구 세검정로1길 95,37.59591997,126.9456918
13163,서울특별시 강북구 노해로8길 22,37.63800514,127.0242249
13164,서울특별시 강북구 한천로 1174,37.64830425,127.0152696
13165,서울특별시 영등포구 선유로 207,37.53200749,126.8937947
13166,서울특별시 영등포구 여의동로 213,37.51859533,126.9396296
13167,서울특별시 영등포구 의사당대로 127,37.52024054,126.9264067
13168,서울특별시 구로구 개봉로15길 91,37.48964491,126.8510807
13169,서울특별시 영등포구 당산로4길 12,37.51627575,126.8973904
13170,서울특별시 구로구 경인로40길 11,37.49605678,126.8594226
13171,서울특별시 구로구 경인로 382,37.496373,126.8630822
13172,서울특별시 구로구 개봉로20길 6,37.49288023,126.8593081
13173,서울특별시 양천구 목동동로 189,37.52294129,126.8701237
13174,서울특별시 양천구 신목로 23,37.51755747,126.8743107
13175,서울특별시 마포구 상암산로1길 24,37.57766721,126.8893417
13176,서울특별시 양천구 중앙로29길 55,37.51713502,126.8474188
13177,서울특별시 양천구 중앙로29길 55,37.51713502,126.8474188
13178,서울특별시 강서구 양천로30길 123-9,37.56875643,126.823405
13179,서울특별시 강서구 마곡서1로 132,37.56849345,126.8195404
13180,서울특별시 강서구 마곡중앙1로 71,37.55690832,126.8178746
13181,서울특별시 양천구 신정로14길 6,37.50853589,126.8444116
13182,서울특별시 양천구 신정로 260,37.51119304,126.8519831
13183,서울특별시 양천구 신정로 293,37.51430989,126.8550432
13184,서울특별시 양천구 목동동로12길 60,37.52213326,126.8777896
13185,서울특별시 양천구 목동동로 130,37.514999,126.8712369
13186,서울특별시 양천구 화곡로3길 43,37.54360397,126.8280602
13187,서울특별시 양천구 목동동로 10,37.50775811,126.86131
13188,서울특별시 양천구 중앙로29길 61,37.51954197,126.848125
13189,서울특별시 양천구 중앙로29길 61,37.51954197,126.848125
13190,서울특별시 구로구 도림로 107,37.49154085,126.8936638
13191,서울특별시 구로구 도림로 107,37.49154085,126.8936638
13192,서울특별시 영등포구 국회대로54길 10,37.52365869,126.9064302
13193,서울특별시 구로구 구일로4길 46,37.49326723,126.8778699
13194,서울특별시 마포구 방울내로 43,37.5593068,126.9004508
13195,서울특별시 금천구 한내로 62,37.45539127,126.8888776
13196,서울특별시 양천구 중앙로53길 5,37.5258113,126.8490877
13197,서울특별시 양천구 목동서로 400,37.51500787,126.8578385
13198,서울특별시 강서구 강서로47길 108,37.55356537,126.8305342
13199,서울특별시 양천구 은행정로17길 6,37.52666389,126.858229
13200,서울특별시 강서구 화곡로31다길 9,37.54459589,126.8383348
13201,서울특별시 영등포구 영중로 154,37.53118834,126.9060668
13202,서울특별시 구로구 개봉로20길 6,37.49288023,126.8593081
13203,서울특별시 마포구 토정로32길 11,37.53984722,126.9409866
13204,서울특별시 구로구 신도림로 16,37.50512282,126.882191
13205,서울특별시 마포구 성암로 91,37.57131634,126.9066164
13206,서울특별시 영등포구 당산로42길 16,37.53059009,126.899629
13207,서울특별시 강서구 화곡로63가길 71,37.56308148,126.8488956
13208,서울특별시 양천구 목동서로 234,37.52649324,126.8689978
13209,서울특별시 양천구 목동서로 234,37.52649324,126.8689978
13210,서울특별시 양천구 목동로 212,37.52924989,126.8670932
13211,서울특별시 양천구 목동서로 70,37.53704736,126.8764175
13212,서울특별시 양천구 목동중앙본로22길 63,37.54148977,126.8729624
13213,서울특별시 양천구 목동중앙본로 85,37.54326087,126.8698289
13214,서울특별시 강서구 화곡로63가길 71,37.56308148,126.8488956
13215,서울특별시 강서구 허준로 139,37.56461212,126.8562786
13216,서울특별시 강서구 강서로 490,37.56909256,126.8418057
13217,서울특별시 강서구 금낭화로23길 8,37.5794087,126.8125928
13218,서울특별시 영등포구 버드나루로 116,37.5285195,126.9082614
13219,서울특별시 구로구 고척로60길 30,37.50514966,126.8587666
13220,서울특별시 강서구 공항대로59길 103,37.55597526,126.8621674
13221,서울특별시 구로구 중앙로15길 125,37.50778717,126.8526463
13222,서울특별시 구로구 구일로4길 65,37.49513041,126.8753604
13223,서울특별시 영등포구 국회대로37길 22,37.52800989,126.9018778
13224,서울특별시 구로구 신도림로21길 25,37.51302996,126.8844957
13225,서울특별시 구로구 고척로52길 9,37.50497202,126.8565519
13226,서울특별시 구로구 구로동로47길 24,37.49946275,126.8804471
13227,서울특별시 구로구 경인로 390,37.49445987,126.8643877
13228,서울특별시 강서구 강서로 348,37.55707841,126.8380811
13229,서울특별시 강서구 수명로1길 16,37.55204782,126.8225609
13230,서울특별시 강서구 양천로75길 19,37.55181162,126.8740724
13231,서울특별시 강서구 공항대로 637,37.54757124,126.8759326
13232,서울특별시 강서구 양천로67길 32,37.55511856,126.8688646
13233,서울특별시 강서구 양천로69길 58,37.55527197,126.8729604
13234,서울특별시 강서구 화곡로63가길 71,37.56308148,126.8488956
13235,서울특별시 강서구 강서로68길 36,37.56538683,126.8422565
13236,서울특별시 금천구 시흥대로64길 27,37.45644516,126.9005821
13237,서울특별시 금천구 금하로 793,37.45221259,126.9182453
13238,서울특별시 금천구 금하로23라길 31,37.45404949,126.9106625
13239,서울특별시 양천구 지양로15길 20,37.52397372,126.82925
13240,서울특별시 마포구 창전로 45,37.54688323,126.9319611
13241,서울특별시 구로구 신도림로21길 25,37.51302996,126.8844957
13242,서울특별시 구로구 신도림로 78,37.50938921,126.8847002
13243,서울특별시 마포구 독막로 266,37.54386754,126.9423896
13244,서울특별시 양천구 가로공원로 129,37.53654725,126.8302979
13245,서울특별시 강서구 공항대로43길 104,37.56023933,126.8516942
13246,서울특별시 영등포구 대방천로 180,37.4971007,126.9117177
13247,서울특별시 영등포구 양평로23길 18,37.5381329,126.89079
13248,서울특별시 강서구 양천로 507,37.5603957,126.8573626
13249,서울특별시 영등포구 선유로 207,37.53200749,126.8937947
13250,서울특별시 동대문구 답십리로 130,37.57285496,127.0524012
13251,서울특별시 성동구 성수일로4길 26,37.54150037,127.0515083
13252,서울특별시 성동구 둘레19길 5,37.53536797,127.0568444
13253,서울특별시 중랑구 면목로35길 63,37.57859971,127.0819788
13254,서울특별시 중랑구 봉우재로14길 30-8,37.58938279,127.0778584
13255,서울특별시 중랑구 면목로37길 57,37.58001478,127.0829314
13256,서울특별시 성북구 북악산로 847,37.59955876,127.0179535
13257,서울특별시 성북구 정릉로 292,37.60301029,127.0159693
13258,서울특별시 성북구 아리랑로19길 60,37.60217383,127.0100332
13259,서울특별시 성북구 정릉로26길 8,37.60386708,127.0108477
13260,서울특별시 성북구 북악산로 851,37.60025102,127.0183154
13261,서울특별시 성북구 보국문로 116,37.61514195,127.0077019
13262,서울특별시 용산구 한강대로53길 16,37.5342236,126.970847
13263,서울특별시 용산구 한강대로62길 32,37.53343809,126.9730586
13264,서울특별시 용산구 원효로 216,37.53672336,126.9665272
13265,서울특별시 동대문구 신이문로 9,37.60316294,127.0633541
13266,서울특별시 성북구 길음로 33,37.60508329,127.0220786
13267,서울특별시 성북구 길음로13길 22,37.60944177,127.0193237
13268,서울특별시 성북구 길음로13길 22,37.60944177,127.0193237
13269,서울특별시 성북구 길음로13길 39,37.61004419,127.0162235
13270,서울특별시 성북구 길음로13길 39,37.61004419,127.0162235
13271,서울특별시 성동구 독서당로40길 25,37.5433496,127.0193024
13272,서울특별시 광진구 광나루로56길 29,37.53695769,127.0965367
13273,서울특별시 동대문구 한천로 248,37.58323604,127.071898
13274,서울특별시 동대문구 장안벚꽃로5길 19,37.5820674,127.0741592
13275,서울특별시 동대문구 망우로 95,37.59118484,127.0639632
13276,서울특별시 동대문구 사가정로 190,37.57734724,127.064387
13277,서울특별시 성북구 보문사길 111,37.58287311,127.0178911
13278,서울특별시 동대문구 전농로 192,37.58280297,127.0554526
13279,서울특별시 광진구 아차산로76길 31,37.54743466,127.1087986
13280,서울특별시 성동구 고산자로 164,37.55506876,127.0354241
13281,서울특별시 성동구 고산자로 164,37.55506876,127.0354241
13282,서울특별시 성동구 행당로 82,37.55480888,127.0273997
13283,서울특별시 성동구 행당로 82,37.55480888,127.0273997
13284,서울특별시 성북구 보문로29다길 31,37.58417735,127.0126186
13285,서울특별시 성동구 행당로 82,37.55480888,127.0273997
13286,서울특별시 성북구 동소문로15길 99,37.59560378,127.0138124
13287,서울특별시 중랑구 신내로21길 16,37.61680164,127.0868849
13288,서울특별시 중랑구 중랑역로 150,37.60677377,127.0773693
13289,서울특별시 중랑구 중랑천로 286,37.61069547,127.0734802
13290,서울특별시 중구 다산로36길 110,37.55986467,127.0190343
13291,서울특별시 중구 다산로 32,37.54715055,127.0057062
13292,서울특별시 성동구 행당로 79,37.55820535,127.027507
13293,서울특별시 성동구 행당로 79,37.55820535,127.027507
13294,서울특별시 동대문구 장한로18길 82-14,37.56775245,127.0729253
13295,서울특별시 동대문구 장한로14길 81,37.56681812,127.0721804
13296,서울특별시 동대문구 천호대로97길 9,37.56136855,127.0699154
13297,서울특별시 동대문구 장한로12길 89,37.56447276,127.0727354
13298,서울특별시 성동구 무학봉길 49,37.56156486,127.0280453
13299,서울특별시 성북구 오패산로 90,37.60994709,127.0369136
13300,서울특별시 성북구 오패산로 90,37.60994709,127.0369136
13301,서울특별시 성북구 오패산로 90,37.60994709,127.0369136
13302,서울특별시 성북구 월곡로14길 26,37.60023402,127.0426519
13303,서울특별시 성북구 오패산로16가길 40,37.60990552,127.0386975
13304,서울특별시 성북구 장월로1길 28,37.60877249,127.045612
13305,서울특별시 성북구 돌곶이로41가길 54,37.6176586,127.0429228
13306,서울특별시 광진구 뚝섬로52마길 56,37.52809073,127.081383
13307,서울특별시 광진구 뚝섬로 576,37.53379964,127.0731493
13308,서울특별시 광진구 뚝섬로54길 74,37.52853396,127.0784212
13309,서울특별시 광진구 능동로4길 78,37.53127864,127.070478
13310,서울특별시 성북구 화랑로 214,37.60915834,127.0548327
13311,서울특별시 성북구 화랑로48길 16,37.61376289,127.0689946
13312,서울특별시 성북구 한천로 509,37.60698616,127.0657342
13313,서울특별시 성동구 금호로 107,37.55227227,127.0242376
13314,서울특별시 종로구 통일로 246-20,37.5769322,126.9618517
13315,서울특별시 종로구 통일로18길 9,37.57767072,126.9553549
13316,서울특별시 종로구 송월길 99,37.5708611,126.9623523
13317,서울특별시 성동구 마장로 271,37.56648427,127.0402766
13318,서울특별시 성동구 마장로42길 16,37.56504066,127.0460385
13319,서울특별시 동대문구 답십리로 130,37.57285496,127.0524012
13320,서울특별시 동대문구 천호대로 257,37.56895705,127.0505799
13321,서울특별시 동대문구 전농로10길 20,37.57460947,127.0601291
13322,서울특별시 성동구 사근동길 65,37.56214127,127.0487039
13323,서울특별시 종로구 동망산길 47,37.58155743,127.0157383
13324,서울특별시 성북구 정릉로 404,37.60429852,127.0287962
13325,서울특별시 성북구 정릉로 402,37.6038114,127.026718
13326,서울특별시 종로구 동망산길 47,37.58155743,127.0157383
13327,서울특별시 동대문구 한천로11길 10-1,37.56989001,127.061632
13328,서울특별시 동대문구 왕산로 86,37.57775047,127.0324772
13329,서울특별시 성동구 고산자로 160,37.55433983,127.0348842
13330,서울특별시 성동구 고산자로 160,37.55433983,127.0348842
13331,서울특별시 성동구 고산자로 160,37.55433983,127.0348842
13332,서울특별시 성북구 성북로6가길 23,37.59054305,127.0056044
13333,서울특별시 중랑구 용마산로129나길 101,37.60325292,127.0988073
13334,서울특별시 중랑구 신내로 127,37.61086744,127.0956519
13335,서울특별시 강북구 숭인로 39,37.61274096,127.0269652
13336,서울특별시 강북구 솔샘로 174,37.61763836,127.0105997
13337,서울특별시 성동구 왕십리로 36,37.54046563,127.0442769
13338,서울특별시 용산구 이촌로 193,37.52159399,126.9683923
13339,서울특별시 용산구 이촌로 248,37.51938659,126.975026
13340,서울특별시 용산구 이촌로 303,37.5189129,126.9811544
13341,서울특별시 용산구 독서당로 46,37.53238119,127.0072578
13342,서울특별시 성북구 보문로29다길 31,37.58417735,127.0126186
13343,서울특별시 동대문구 사가정로 65,37.57550604,127.0496959
13344,서울특별시 동대문구 사가정로 65,37.57550604,127.0496959
13345,서울특별시 성북구 종암로24가길 53,37.60084117,127.0379642
13346,서울특별시 동대문구 정릉천동로 36,37.57547229,127.0371123
13347,서울특별시 광진구 아차산로36길 39,37.53631294,127.0743585
13348,서울특별시 용산구 이촌로87길 21,37.52030091,126.9786385
13349,서울특별시 동대문구 정릉천동로 36,37.57547229,127.0371123
13350,서울특별시 용산구 이촌로87길 21,37.52030091,126.9786385
13351,서울특별시 성동구 독서당로 375,37.54953757,127.0290009
13352,서울특별시 성북구 한천로101길 18,37.62276588,127.0492987
13353,서울특별시 동대문구 답십리로59길 33,37.57506213,127.0665224
13354,서울특별시 중랑구 봉화산로56길 145-1,37.60213026,127.0972053
13355,서울특별시 강북구 숭인로7가길 37,37.61389583,127.0262234
13356,서울특별시 중구 청계천로 400,37.57081055,127.0214639
13357,서울특별시 광진구 아차산로36길 39,37.53631294,127.0743585
13358,서울특별시 중구 다산로36길 109,37.56050413,127.0229704
13359,서울특별시 동대문구 답십리로56길 21,37.57006932,127.0598603
13360,서울특별시 광진구 뚝섬로35길 10,37.53511932,127.0707971
13361,서울특별시 성동구 고산자로 164,37.55506876,127.0354241
13362,서울특별시 광진구 능동로4길 41,37.53316289,127.0694293
13363,서울특별시 성북구 화랑로 299,37.6136536,127.0608101
13364,서울특별시 동대문구 한천로63길 10,37.6049031,127.0637064
13365,서울특별시 동대문구 한천로63길 10,37.6049031,127.0637064
13366,서울특별시 동대문구 홍릉로10길 48,37.58579598,127.0462606
13367,서울특별시 용산구 보광로 14,37.52584904,127.0022205
13368,서울특별시 성동구 살곶이길 50,37.5696275,127.041524
13369,서울특별시 동대문구 한천로 300,37.58783931,127.0685393
13370,서울특별시 동대문구 한천로 248,37.58323604,127.071898
13371,서울특별시 중구 동호로10길 30,37.5551916,127.0163594
13372,서울특별시 동대문구 이문로12길 3-10,37.59303561,127.0609848
13373,서울특별시 강북구 삼양로19길 25,37.61569432,127.021139
13374,서울특별시 강북구 솔샘로 159,37.62182327,127.0124075
13375,서울특별시 성북구 동소문로31길 6-1,37.59721501,127.0207062
13376,서울특별시 강북구 삼양로19길 113,37.61705556,127.0177233
13377,서울특별시 중구 서소문로6길 34,37.55961498,126.9675988
13378,서울특별시 성북구 장월로1길 28,37.60877249,127.045612
13379,서울특별시 성북구 한천로101길 18,37.62276588,127.0492987
13380,서울특별시 동대문구 한천로 248,37.58323604,127.071898
13381,서울특별시 동대문구 한천로58길 47,37.60075075,127.0687695
13382,서울특별시 광진구 아차산로69길 19,37.5430015,127.0979673
13383,서울특별시 광진구 광나루로56길 29,37.53695769,127.0965367
13384,서울특별시 중랑구 봉화산로27길 30,37.60325509,127.0836363
13385,서울특별시 광진구 능동로19길 47,37.54701428,127.0711677
13386,서울특별시 중랑구 중랑천로 20,37.58648311,127.0758051
13387,서울특별시 광진구 아차산로70길 61,37.54022537,127.0999667
13388,서울특별시 중구 다산로36길 110,37.55986467,127.0190343
13389,서울특별시 동대문구 장안벚꽃로 167,37.5750721,127.0742821
13390,서울특별시 동대문구 장안벚꽃로 167,37.5750721,127.0742821
13391,서울특별시 동대문구 장한로26다길 24,37.57066148,127.072938
13392,서울특별시 동대문구 천호대로83길 71-7,37.5652028,127.0658934
13393,서울특별시 동대문구 한천로 42,37.565949,127.0617272
13394,서울특별시 동대문구 한천로 42,37.565949,127.0617272
13395,서울특별시 광진구 군자로12길 46,37.55171279,127.0726727
13396,서울특별시 성북구 화랑로 214,37.60915834,127.0548327
13397,서울특별시 광진구 광나루로 361,37.54844573,127.0697457
13398,서울특별시 강북구 삼양로 256,37.62628401,127.0188996
13399,서울특별시 성북구 보문사길 111,37.58287311,127.0178911
13400,서울특별시 중랑구 신내로 51,37.60597617,127.0947246
13401,서울특별시 성북구 종암로25길 30,37.60149226,127.0310804
13402,서울특별시 중랑구 숙선옹주로 91,37.61726537,127.0855444
13403,서울특별시 용산구 이촌로71길 10,37.52049032,126.9729806
13404,서울특별시 성북구 오패산로16가길 40,37.60990552,127.0386975
13405,서울특별시 중구 퇴계로90길 74,37.56103798,127.0209858
13406,서울특별시 성동구 무학로6길 50,37.5645962,127.0350239
13407,서울특별시 용산구 이촌로2가길 122,37.52546565,126.9544787
13408,서울특별시 용산구 이촌로 260,37.51857314,126.9762116
13409,서울특별시 성동구 무학로6길 50,37.5645962,127.0350239
13410,서울특별시 성북구 길음로 119,37.61049908,127.0163726
13411,서울특별시 성동구 고산자로 160,37.55433983,127.0348842
13412,서울특별시 용산구 한강대로62길 32,37.53343809,126.9730586
13413,서울특별시 동대문구 황물로15길 25,37.56656253,127.0571883
13414,서울특별시 용산구 독서당로34길 22,37.53919989,127.0124172
13415,서울특별시 성동구 매봉길 50,37.54729891,127.0121894
13416,서울특별시 성동구 난계로 100,37.5615293,127.0246515
13417,서울특별시 노원구 동일로208길 20,37.64325657,127.0669948
13418,서울특별시 은평구 통일로80길 1-1,37.62011156,126.920875
13419,서울특별시 강북구 오현로 207,37.63089359,127.0386803
13420,서울특별시 서대문구 거북골로 154,37.57656261,126.9137835
13421,서울특별시 은평구 연서로48길 11,37.6377915,126.936819
13422,서울특별시 노원구 동일로215길 23,37.6504273,127.059109
13423,서울특별시 노원구 동일로215길 48,37.65082219,127.0561606
13424,서울특별시 마포구 마포대로 195,37.55243392,126.9542238
13425,서울특별시 은평구 진관3로 70,37.64225983,126.9231411
13426,서울특별시 노원구 중계로 184,37.65110792,127.0795991
13427,서울특별시 서대문구 증가로 191,37.57849683,126.9173923
13428,서울특별시 도봉구 도봉로146길 36,37.66358961,127.0449079
13429,서울특별시 노원구 섬밭로 229,37.63661786,127.0645392
13430,서울특별시 노원구 덕릉로71길 30,37.6508593,127.0696948
13431,서울특별시 노원구 노원로22길 34,37.64636938,127.0727769
13432,서울특별시 노원구 덕릉로94길 21,37.66355722,127.0766339
13433,서울특별시 노원구 노원로 214,37.63831966,127.0775252
13434,서울특별시 노원구 노원로 564,37.66165211,127.0561247
13435,서울특별시 노원구 동일로228길 23,37.66986967,127.0587381
13436,서울특별시 서대문구 독립문로14길 33,37.56591992,126.9592895
13437,서울특별시 서대문구 독립문로14길 33,37.56591992,126.9592895
13438,서울특별시 노원구 동일로228길 23,37.66986967,127.0587381
13439,서울특별시 서대문구 연희로 377,37.59100664,126.9393203
13440,서울특별시 서대문구 세검정로1길 35,37.59363936,126.9439082
13441,서울특별시 도봉구 도봉로146길 48,37.66388014,127.0456887
13442,서울특별시 도봉구 해등로 286-5,37.65772975,127.0241592
13443,서울특별시 은평구 갈현로23길 41,37.61806484,126.910133
13444,서울특별시 은평구 갈현로23길 41,37.61806484,126.910133
13445,서울특별시 도봉구 도봉로110다길 51,37.64320468,127.0329434
13446,서울특별시 도봉구 도봉로136가길 68,37.65693863,127.0415177
13447,서울특별시 도봉구 덕릉로66길 17,37.64371212,127.0539524
13448,서울특별시 도봉구 덕릉로 349,37.64503774,127.0460993
13449,서울특별시 도봉구 해등로 49,37.6474034,127.0418766
13450,서울특별시 노원구 마들로 111,37.62383436,127.0647781
13451,서울특별시 노원구 마들로 59,37.62262082,127.0668819
13452,서울특별시 노원구 한글비석로8길 42,37.64702362,127.0799492
13453,서울특별시 노원구 섬밭로 229,37.63661786,127.0645392
13454,서울특별시 노원구 노원로11길 23,37.63951128,127.0729039
13455,서울특별시 노원구 한글비석로 151,37.64132911,127.0756184
13456,서울특별시 노원구 월계로55길 15,37.63239642,127.059849
13457,서울특별시 노원구 동일로 1390,37.65271807,127.0615199
13458,서울특별시 도봉구 마들로 551,37.65946197,127.0480359
13459,서울특별시 도봉구 노해로66길 21,37.65039161,127.0473309
13460,서울특별시 도봉구 노해로69길 103,37.65778635,127.0492757
13461,서울특별시 도봉구 노해로69길 103,37.65778635,127.0492757
13462,서울특별시 도봉구 우이천로 200,37.63756527,127.0359142
13463,서울특별시 도봉구 도봉로136길 28,37.65657114,127.042729
13464,서울특별시 도봉구 도봉로136길 28,37.65657114,127.042729
13465,서울특별시 도봉구 도봉로136길 28,37.65657114,127.042729
13466,서울특별시 도봉구 도봉로136길 28,37.65657114,127.042729
13467,서울특별시 도봉구 우이천로4라길 11-14,37.63304517,127.0422797
13468,서울특별시 노원구 노해로 508,37.65470356,127.066191
13469,서울특별시 노원구 광운로2나길 50,37.61869188,127.0600064
13470,서울특별시 노원구 광운로2가길 22,37.61770365,127.060059
13471,서울특별시 은평구 백련산로 37,37.58941333,126.9222745
13472,서울특별시 서대문구 통일로34길 43,37.58833366,126.9488077
13473,서울특별시 노원구 한글비석로48길 6,37.66521219,127.0677191
13474,서울특별시 서대문구 통일로39가길 57,37.58990008,126.9409853
13475,서울특별시 서대문구 모래내로 151,37.56990129,126.9178357
13476,서울특별시 노원구 덕릉로71길 30,37.6508593,127.0696948
13477,서울특별시 노원구 덕릉로71길 30,37.6508593,127.0696948
13478,서울특별시 마포구 삼개로 33,37.53664447,126.9477514
13479,서울특별시 노원구 노원로1가길 10,37.62365045,127.0859584
13480,서울특별시 노원구 공릉로27길 110,37.62671914,127.0774751
13481,서울특별시 서대문구 북아현로1가길 20,37.55806808,126.9513991
13482,서울특별시 은평구 통일로 590,37.6006262,126.9371561
13483,서울특별시 도봉구 해등로25길 41,37.65588091,127.0341244
13484,서울특별시 노원구 동일로216길 92,37.65052082,127.0673497
13485,서울특별시 노원구 한글비석로 479,37.66449773,127.0644832
13486,서울특별시 도봉구 마들로 684-20,37.66981773,127.0469714
13487,서울특별시 노원구 월계로42길 97,37.62200512,127.0531737
13488,서울특별시 은평구 응암로 319,37.59971094,126.9214509
13489,서울특별시 노원구 덕릉로71길 5,37.64997641,127.069119
13490,서울특별시 송파구 잠실로 88,37.50753416,127.0932143
13491,서울특별시 송파구 올림픽로35길 104,37.51981736,127.0992977
13492,서울특별시 송파구 올림픽로 435,37.5213593,127.1049717
13493,서울특별시 송파구 올림픽로 435,37.5213593,127.1049717
13494,서울특별시 송파구 올림픽로 435,37.5213593,127.1049717
13495,서울특별시 강남구 삼성로51길 35,37.49490423,127.0601787
13496,서울특별시 강남구 삼성로 212,37.49961577,127.0659154
13497,서울특별시 강남구 삼성로 212,37.49961577,127.0659154
13498,서울특별시 강남구 삼성로 212,37.49961577,127.0659154
13499,서울특별시 서초구 잠원로14길 41,37.51649586,127.0143757
13500,서울특별시 강남구 삼성로64길 5,37.5004475,127.0605138
13501,서울특별시 강남구 삼성로64길 5,37.5004475,127.0605138
13502,서울특별시 강남구 언주로 420,37.50096264,127.0441686
13503,서울특별시 동작구 사당로26길 130-6,37.47802934,126.9778556
13504,서울특별시 동작구 동작대로29길 91,37.48802893,126.9765166
13505,서울특별시 송파구 잠실로 62,37.50801505,127.0902835
13506,서울특별시 송파구 올림픽로35길 104,37.51981736,127.0992977
13507,서울특별시 강남구 개포로109길 21,37.49562649,127.077191
13508,서울특별시 서초구 남부순환로297다길 17,37.47573223,126.9937094
13509,서울특별시 서초구 방배로28길 80,37.49132791,126.9964593
13510,서울특별시 서초구 방배중앙로 51,,
13511,서울특별시 강남구 개포로110길 50,37.48954101,127.0796242
13512,서울특별시 송파구 토성로 37,37.53109771,127.1155537
13513,서울특별시 강남구 자곡로 101,37.47265508,127.0958055
13514,서울특별시 관악구 대학20길 27,37.46439632,126.9375489
13515,서울특별시 서초구 서운로 197,37.49948267,127.0208201
13516,서울특별시 송파구 동남로11길 4,37.49391892,127.1280119
13517,서울특별시 강남구 개포로 516,37.48914068,127.0708715
13518,서울특별시 강남구 개포로109길 21,37.49562649,127.077191
13519,서울특별시 서초구 강남대로39길 15-10,37.48570202,127.0321177
13520,서울특별시 서초구 서운로 201,37.50132463,127.0201266
13521,서울특별시 서초구 강남대로61길 23,37.49821536,127.0243472
13522,서울특별시 서초구 서초대로65길 13-10,37.49742848,127.0191506
13523,서울특별시 동작구 여의대방로44길 47,37.50992351,126.9304186
13524,서울특별시 서초구 반포대로 275,37.50239027,126.9959653
13525,서울특별시 관악구 관악로 304,37.49205057,126.957711
13526,서울특별시 강남구 언주로122길 6,37.51186152,127.0366108
13527,서울특별시 서초구 양재대로2길 109,37.4561155,127.0137834
13528,서울특별시 서초구 바우뫼로7길 29,37.47070547,127.0231377
13529,서울특별시 서초구 청계산로9길 1-12,37.44968266,127.0562414
13530,서울특별시 서초구 바우뫼로 33,37.47150802,127.025254
13531,서울특별시 서초구 헌릉로8길 58,37.45324439,127.0624773
13532,서울특별시 관악구 관악로30길 27,37.48896635,126.9606433
13533,서울특별시 강남구 학동로 405,37.51781772,127.042236
13534,서울특별시 동작구 사당로2가길 188,37.48644352,126.9655243
13535,서울특별시 강남구 압구정로29길 51,37.53084794,127.0271405
13536,서울특별시 강남구 압구정로29길 71,37.53360328,127.0283258
13537,서울특별시 강남구 압구정로39길 58,37.53267794,127.0322322
13538,서울특별시 강남구 압구정로 151,37.52678582,127.024455
13539,서울특별시 송파구 한가람로 468,37.5383136,127.1168793
13540,서울특별시 송파구 풍성로26길 47,37.52998092,127.1170239
13541,서울특별시 동작구 여의대방로22아길 22,37.49660641,126.9240309
13542,서울특별시 동작구 서달로 91,37.50316562,126.958891
13543,서울특별시 동작구 동작대로29길 119,37.49088863,126.9760567
13544,서울특별시 관악구 관악로28길 80,37.48352492,126.9591453
13545,서울특별시 강남구 영동대로 602,37.51472159,127.0604839
13546,서울특별시 강남구 영동대로112길 15,37.51560296,127.0618589
13547,서울특별시 강남구 광평로19길 10,37.48548535,127.0866017
13548,서울특별시 동작구 상도로 407,37.49391739,126.9577733
13549,서울특별시 송파구 올림픽로35길 93,37.51777328,127.1043927
13550,서울특별시 송파구 가락로 192,37.50472533,127.1159469
13551,서울특별시 서초구 주흥17길 22,37.50927286,127.0171876
13552,서울특별시 송파구 가락로 192,37.50472533,127.1159469
13553,서울특별시 송파구 올림픽로 435,37.5213593,127.1049717
13554,서울특별시 송파구 올림픽로 435,37.5213593,127.1049717
13555,서울특별시 영등포구 도림로 187,37.49556574,126.9005922
13556,서울특별시 영등포구 도림로54길 14,37.49542065,126.9023929
13557,서울특별시 동작구 노량진로32길 156,37.50941807,126.9545075
13558,서울특별시 동작구 동작대로39길 22,37.49463598,126.981966
13559,서울특별시 동작구 매봉로 99,37.50920747,126.9491303
13560,서울특별시 강남구 남부순환로370길 20,37.4841207,127.0425584
13561,서울특별시 강남구 언주로30길 26,37.48776325,127.0525302
13562,서울특별시 강남구 삼성로 417,37.50459597,127.057495
13563,서울특별시 강남구 테헤란로 428,37.50569199,127.0541832
13564,서울특별시 송파구 올림픽로 435,37.5213593,127.1049717
13565,서울특별시 송파구 마천로 181,37.50330622,127.1393228
13566,서울특별시 송파구 성내천로6길 1-13,,
13567,서울특별시 송파구 위례성대로 176,37.51063671,127.1287586
13568,서울특별시 송파구 양재대로72길 42,37.50779733,127.1314186
13569,서울특별시 강동구 고덕로 210,37.5538093,127.147061
13570,서울특별시 송파구 오금로31길 27,37.50901146,127.1225965
13571,서울특별시 강동구 상암로51길 61,37.5486615,127.1461524
13572,서울특별시 강동구 상암로51길 61,37.5486615,127.1461524
13573,서울특별시 강동구 천중로44길 75,37.53765357,127.1393471
13574,서울특별시 강동구 올림픽로89길 55,37.54695219,127.1225742
13575,서울특별시 강동구 성안로25길 6,37.53830263,127.1347907
13576,서울특별시 강동구 양재대로 1706,37.55795484,127.1462943
13577,서울특별시 송파구 오금로31길 28,37.50894652,127.1242908
13578,서울특별시 송파구 문정로 83,37.48920432,127.130232
13579,서울특별시 송파구 문정로 83,37.48920432,127.130232
13580,서울특별시 송파구 송이로32길 37,37.48698109,127.1272443
13581,서울특별시 송파구 송파대로 111,37.47968706,127.1249798
13582,서울특별시 송파구 양산로8길 8,37.49091614,127.144567
13583,서울특별시 강동구 천호대로177길 9,37.53505255,127.1372865
13584,서울특별시 강동구 양재대로 1706,37.55795484,127.1462943
13585,서울특별시 강동구 고덕로61길 37,37.55675612,127.1519579
13586,서울특별시 강동구 동남로79길 26,37.55918388,127.1537442
13587,서울특별시 강동구 아리수로50길 50,37.55768646,127.1485777
13588,서울특별시 강동구 아리수로50길 50,37.55768646,127.1485777
13589,서울특별시 강동구 천호대로 1092,37.53524776,127.1326638
13590,서울특별시 강동구 천호대로 1092,37.53524776,127.1326638
13591,서울특별시 송파구 양재대로 1218,37.51669099,127.1377124
13592,서울특별시 송파구 위례성대로12길 25,37.51126984,127.1226704
13593,서울특별시 송파구 위례광장로 270,37.47709543,127.1437235
13594,서울특별시 송파구 송파대로8길 58,37.48023216,127.1337902
13595,서울특별시 강동구 아리수로93가길 25,37.56686794,127.1720243
13596,서울특별시 구로구 경인로8길 64,37.4921685,126.8402916
13597,서울특별시 금천구 가산로 99,37.47615677,126.8912894
13598,서울특별시 영등포구 선유로33길 22,37.52720953,126.8883743
13599,서울특별시 마포구 양화로 26,37.54831011,126.9121367
13600,서울특별시 마포구 양화로 45,37.5515008,126.9139502
13601,서울특별시 영등포구 여의대방로9길 5,37.49697579,126.9147393
13602,서울특별시 영등포구 대방천로14길 8,37.49855758,126.9098661
13603,서울특별시 영등포구 여의대방로43나길 25,37.50662535,126.920787
13604,서울특별시 영등포구 도림로 313,37.50546963,126.901495
13605,서울특별시 마포구 월드컵북로 235,37.56970041,126.9014174
13606,서울특별시 양천구 목동중앙서로11길 49-5,37.53428824,126.8670594
13607,서울특별시 양천구 오목로 299,37.5260837,126.8703553
13608,서울특별시 양천구 목동중앙남로3길 11,37.53610864,126.8671537
13609,서울특별시 구로구 중앙로5길 62,37.50293473,126.8607486
13610,서울특별시 구로구 고척로52길 53,37.50349452,126.8566024
13611,서울특별시 구로구 고척로60길 30,37.50514966,126.8587666
13612,서울특별시 양천구 목동서로 130,37.53151635,126.8709047
13613,서울특별시 양천구 목동서로 130,37.53151635,126.8709047
13614,서울특별시 양천구 목동중앙남로 51-18,37.53862842,126.8650423
13615,서울특별시 양천구 목동중앙로 9,37.53127979,126.8672868
13616,서울특별시 양천구 목동중앙로 11,37.53229005,126.8669377
13617,서울특별시 구로구 가마산로27길 66,37.49967177,126.8902724
13618,서울특별시 구로구 디지털로31길 90,37.48873032,126.8920535
13619,서울특별시 구로구 공원로 15-12,37.49867333,126.8911162
13620,서울특별시 구로구 디지털로31길 120,37.48847002,126.890773
13621,서울특별시 구로구 구로중앙로 134,37.49998807,126.8840982
13622,서울특별시 구로구 새말로 25,37.50257689,126.8830514
13623,서울특별시 마포구 월드컵로25길 125,37.55675721,126.9009475
13624,서울특별시 금천구 시흥대로 165,37.44790332,126.9007227
13625,서울특별시 강서구 양천로30길 123-9,37.56875643,126.823405
13626,서울특별시 강서구 마곡서1로 111-11,37.56580015,126.817289
13627,서울특별시 강서구 마곡서1로 81,37.56436639,126.8191544
13628,서울특별시 강서구 양천로28길 29,37.57214187,126.82104
13629,서울특별시 양천구 오목로10길 7-8,37.5217466,126.8455948
13630,서울특별시 양천구 오목로7길 6,37.52262981,126.842429
13631,서울특별시 양천구 남부순환로85길 16,37.51457559,126.8428472
13632,서울특별시 양천구 신월로 99,37.5184159,126.8351572
13633,서울특별시 양천구 지양로15길 20,37.52397372,126.82925
13634,서울특별시 강서구 공항대로39길 100,37.56361691,126.8473931
13635,서울특별시 강서구 공항대로59길 35,37.55314967,126.8632818
13636,서울특별시 강서구 방화대로47가길 22,37.57709885,126.8139782
13637,서울특별시 강서구 방화대로47길 55,37.57594012,126.812403
13638,서울특별시 강서구 허준로 47,37.57101357,126.8465852
13639,서울특별시 강서구 허준로 121,37.56709401,126.8547358
13640,서울특별시 영등포구 도신로29길 28,37.51175428,126.9023257
13641,서울특별시 구로구 신도림로21길 21,37.51294515,126.8834609
13642,서울특별시 양천구 신정로11길 20,37.5119634,126.8387028
13643,서울특별시 양천구 신정이펜1로 51,37.51085103,126.8311041
13644,서울특별시 양천구 목동동로 50,37.51209479,126.8602911
13645,서울특별시 양천구 목동동로 130,37.514999,126.8712369
13646,서울특별시 양천구 신정로 170,37.50864654,126.8423769
13647,서울특별시 양천구 신정로 293,37.51430989,126.8550432
13648,서울특별시 양천구 신정로 290,37.51232428,126.8534546
13649,서울특별시 양천구 신목로 23,37.51755747,126.8743107
13650,서울특별시 양천구 신정로 225-12,37.51148503,126.8462464
13651,서울특별시 양천구 신목로 43,37.51916661,126.8726634
13652,서울특별시 영등포구 버드나루로 130,37.5305725,126.9080121
13653,서울특별시 강서구 월정로 160,37.53402085,126.8375371
13654,서울특별시 영등포구 문래로8길 5,37.51987702,126.8864189
13655,서울특별시 영등포구 영신로 191,37.52481788,126.9000133
13656,서울특별시 강서구 공항대로46길 28,37.5547234,126.8528968
13657,서울특별시 영등포구 영중로 145,37.52995985,126.90508
13658,서울특별시 강서구 양천로 637,37.55444115,126.8685891
13659,서울특별시 강서구 양천로73길 5,37.55189482,126.8715134
13660,서울특별시 강서구 양천로69길 58,37.55527197,126.8729604
13661,서울특별시 강서구 양천로69길 18,37.55247236,126.8714342
13662,서울특별시 강서구 양천로67길 77,37.55553061,126.870358
13663,서울특별시 영등포구 국제금융로 86,37.52020612,126.9318
13664,서울특별시 영등포구 국제금융로7길 1,37.5231724,126.9311803
13665,서울특별시 영등포구 국제금융로 108-6,37.51875341,126.9327114
13666,서울특별시 영등포구 당산로 95,37.52402305,126.894863
13667,서울특별시 강서구 강서로47길 108,37.55356537,126.8305342
13668,서울특별시 마포구 독막로28길 10,37.54695507,126.9362273
13669,서울특별시 영등포구 양산로 177,37.52446352,126.9031483
13670,서울특별시 구로구 신도림로 78,37.50938921,126.8847002
13671,서울특별시 영등포구 문래로 82,37.51919147,126.8910328
13672,서울특별시 구로구 개봉로19길 85,37.49382802,126.8533262
13673,서울특별시 마포구 월드컵로29길 14,37.56019567,126.905206
13674,서울특별시 양천구 목동중앙서로 37,37.53357925,126.8690813
13675,서울특별시 구로구 개봉로20길 158,37.49204228,126.8607374
13676,서울특별시 양천구 목동중앙본로22길 63,37.54148977,126.8729624
13677,서울특별시 영등포구 선유로9나길 8,37.51714614,126.8862985
13678,서울특별시 구로구 개봉로20길 6,37.49288023,126.8593081
13679,서울특별시 구로구 경인로40길 25,37.49540393,126.8597417
13680,서울특별시 구로구 남부순환로95길 54,37.49503483,126.8547106
13681,서울특별시 구로구 중앙로15길 151,37.5082178,126.8520266
13682,서울특별시 구로구 중앙로8길 11,37.50252837,126.8632892
13683,서울특별시 구로구 경인로47다길 43,37.5049748,126.8667789
13684,서울특별시 양천구 목동남로2길 60-30,37.50784197,126.8637674
13685,서울특별시 양천구 목동남로2길 60-30,37.50784197,126.8637674
13686,서울특별시 양천구 목동남로2길 60-7,37.50539761,126.8646868
13687,서울특별시 양천구 목동서로 38,37.54129134,126.8785038
13688,서울특별시 양천구 목동서로 38,37.54129134,126.8785038
13689,서울특별시 구로구 신도림로 16,37.50512282,126.882191
13690,서울특별시 양천구 목동남로4길 80,37.50853098,126.8684693
13691,서울특별시 구로구 도림로 107,37.49154085,126.8936638
13692,서울특별시 구로구 새말로 31,37.50438037,126.8848254
13693,서울특별시 구로구 구로중앙로 229,37.50531683,126.8755394
13694,서울특별시 구로구 도림로22길 8,37.49014861,126.8932544
13695,서울특별시 양천구 목동동로 50,37.51209479,126.8602911
13696,서울특별시 구로구 구일로8길 107,37.49783535,126.8753872
13697,서울특별시 구로구 가마산로26길 5,37.49600819,126.891051
13698,서울특별시 구로구 구일로4길 22,37.49116709,126.8756454
13699,서울특별시 구로구 구일로4길 22,37.49116709,126.8756454
13700,서울특별시 구로구 구로동로8길 29,37.48716796,126.8863676
13701,서울특별시 구로구 도림로10길 5-17,37.48673299,126.8882903
13702,서울특별시 구로구 도림로8길 16,37.48558589,126.8880758
13703,서울특별시 양천구 목동로 186,37.52522684,126.86639
13704,서울특별시 강서구 공항대로71길 31,37.54870347,126.8719956
13705,서울특별시 강서구 양천로69길 58,37.55527197,126.8729604
13706,서울특별시 영등포구 문래로8길 5,37.51987702,126.8864189
13707,서울특별시 강서구 양천로75길 57,37.55331418,126.8748906
13708,서울특별시 강서구 양천로75길 57,37.55331418,126.8748906
13709,서울특별시 강서구 공항대로75길 17,37.54841126,126.8728997
13710,서울특별시 구로구 오류로8길 11,37.49128662,126.8411126
13711,서울특별시 영등포구 양산로 177,37.52446352,126.9031483
13712,서울특별시 구로구 경인로20나길 63,37.49398476,126.8407719
13713,서울특별시 양천구 목동중앙로 143,37.54153085,126.8757509
13714,서울특별시 양천구 목동서로2길 22,37.54162782,126.8826427
13715,서울특별시 마포구 월드컵북로 260,37.57306208,126.9010479
13716,서울특별시 금천구 범안로17길 12,37.46715359,126.8945478
13717,서울특별시 양천구 목동동로 50,37.51209479,126.8602911
13718,서울특별시 구로구 신도림로 11,37.50727521,126.878181
13719,서울특별시 영등포구 영중로 154,37.53118834,126.9060668
13720,서울특별시 양천구 목동동로 100,37.51498201,126.8651323
13721,서울특별시 양천구 신정로 260,37.51119304,126.8519831
13722,서울특별시 마포구 월드컵북로 235,37.56970041,126.9014174
13723,서울특별시 양천구 목동중앙북로 38,37.54790385,126.8669548
13724,서울특별시 양천구 신정로 260,37.51119304,126.8519831
13725,서울특별시 양천구 신정로7길 76,37.51350715,126.8360663
13726,서울특별시 양천구 목동동로 190,37.52250985,126.8713167
13727,서울특별시 양천구 목동남로4길 81,37.51004896,126.8678756
13728,서울특별시 양천구 목동동로 189,37.52294129,126.8701237
13729,서울특별시 마포구 상암산로1길 57,37.58028248,126.8823069
13730,서울특별시 마포구 독막로42길 2,37.5436033,126.9458539
13731,서울특별시 구로구 서해안로34가길 22,37.49387187,126.8490807
13732,서울특별시 구로구 고척로 82,37.49980442,126.8431058
13733,서울특별시 구로구 경인로 638,37.50668795,126.886233
13734,서울특별시 마포구 월드컵북로 501,37.58479973,126.8781707
13735,서울특별시 마포구 월드컵북로47길 46,37.57488209,126.8907326
13736,서울특별시 강서구 우현로 67,37.54754619,126.8372075
13737,서울특별시 영등포구 버드나루로 130,37.5305725,126.9080121
13738,서울특별시 구로구 오리로 1197,37.48870931,126.8341108
13739,서울특별시 마포구 백범로 76,37.54853202,126.9400378
13740,서울특별시 영등포구 63로 45,37.52135273,126.9373261
13741,서울특별시 마포구 독막로 266,37.54386754,126.9423896
13742,서울특별시 마포구 독막로 266,37.54386754,126.9423896
13743,서울특별시 강서구 금낭화로 287-19,37.57680385,126.8102869
13744,서울특별시 강서구 공항대로59길 64,37.55462322,126.8641847
13745,서울특별시 강서구 강서로15길 56,37.53226561,126.8429316
13746,서울특별시 마포구 독막로20나길 22,37.54609361,126.924865
13747,서울특별시 강서구 강서로56나길 110,37.56351515,126.8428388
13748,서울특별시 강서구 공항대로39길 100,37.56361691,126.8473931
13749,서울특별시 양천구 신정로13길 50,37.51387165,126.8420464
13750,서울특별시 양천구 신월로 99,37.5184159,126.8351572
13751,서울특별시 강서구 금낭화로 287-19,37.57680385,126.8102869
13752,서울특별시 구로구 신도림로 105,37.51215759,126.8853091
13753,서울특별시 영등포구 버드나루로22길 7,37.5310777,126.9080247
13754,서울특별시 영등포구 양평로24길 9,37.54028033,126.8917458
13755,서울특별시 강서구 곰달래로 96,37.53009716,126.8434646
13756,서울특별시 영등포구 신풍로 77,37.50041961,126.9115445
13757,서울특별시 강서구 양천로6길 28,37.57102749,126.8063998
13758,서울특별시 강서구 마곡중앙3로 74,37.56469676,126.8184329
13759,서울특별시 강서구 마곡서로 175,37.56890813,126.8242325
13760,서울특별시 강서구 마곡서1로 146,37.56882497,126.821411
13761,서울특별시 강서구 방화대로34길 88,37.57038093,126.8211936
13762,서울특별시 강서구 금낭화로 287-19,37.57680385,126.8102869
13763,서울특별시 강서구 양천로 521,37.56021869,126.8582892
13764,서울특별시 강서구 허준로 121,37.56709401,126.8547358
13765,서울특별시 영등포구 도림로 313,37.50546963,126.901495
13766,서울특별시 양천구 오목로 300,37.5248304,126.8700225
13767,서울특별시 양천구 오목로 354,37.52398126,126.8767961
13768,서울특별시 양천구 목동중앙북로8길 71,37.54558917,126.8655884
13769,서울특별시 양천구 목동중앙로 79,37.53649904,126.8703904
13770,서울특별시 영등포구 경인로114길 62,37.5171864,126.9127497
13771,서울특별시 마포구 방울내로9안길 64,37.56077957,126.8997069
13772,서울특별시 금천구 금하로 816,37.44977863,126.9200208
13773,서울특별시 금천구 금하로 816,37.44977863,126.9200208
13774,서울특별시 금천구 독산로24나길 13,37.45578943,126.9073776
13775,서울특별시 금천구 시흥대로47길 43,37.45065531,126.8989553
13776,서울특별시 금천구 시흥대로47길 43,37.45065531,126.8989553
13777,서울특별시 관악구 관악로 125,37.47647214,126.95208
13778,서울특별시 관악구 보라매로 62,37.4948015,126.9276026
13779,서울특별시 동작구 매봉로 99,37.50920747,126.9491303
13780,서울특별시 서초구 서초대로23길 74,37.49066097,126.9911393
13781,서울특별시 강남구 선릉로 221,37.49420684,127.0497348
13782,서울특별시 송파구 올림픽로 269,37.51442735,127.1006114
13783,서울특별시 강남구 학동로64길 14,37.51671859,127.044423
13784,서울특별시 서초구 바우뫼로39길 32-6,37.4810438,127.0403864
13785,서울특별시 서초구 서초중앙로 242,37.50397979,127.0114477
13786,서울특별시 관악구 관악로30길 12,37.48413576,126.9606073
13787,서울특별시 동작구 등용로 127,37.51255874,126.9309884
13788,서울특별시 강남구 선릉로 8,37.48005758,127.0641534
13789,서울특별시 강남구 압구정로 151,37.52678582,127.024455
13790,서울특별시 관악구 관악로30길 27,37.48896635,126.9606433
13791,서울특별시 송파구 올림픽로35길 93,37.51777328,127.1043927
13792,서울특별시 강남구 광평로19길 15,37.48553054,127.0847979
13793,서울특별시 서초구 잠원로 37-48,37.51007746,127.00618
13794,서울특별시 관악구 관악로 285,37.48936831,126.9551316
13795,서울특별시 관악구 봉천로23다길 13,37.48769758,126.9364891
13796,서울특별시 관악구 성현로 80,37.48984744,126.9529855
13797,서울특별시 강남구 학동로97길 31,37.52138028,127.0545488
13798,서울특별시 동작구 동작대로29길 91,37.48802893,126.9765166
13799,서울특별시 강남구 도산대로92길 28,37.52287156,127.0491421
13800,서울특별시 동작구 사당로2가길 10-5,37.49319014,126.9616131
13801,서울특별시 송파구 올림픽로 435,37.5213593,127.1049717
13802,서울특별시 관악구 은천로 93,37.48735272,126.9454289
13803,서울특별시 동작구 여의대방로44길 10,37.50736122,126.9260908
13804,서울특별시 송파구 올림픽로 435,37.5213593,127.1049717
13805,서울특별시 송파구 올림픽로33길 1,,
13806,서울특별시 서초구 잠원로14길 41,37.51649586,127.0143757
13807,서울특별시 강남구 광평로19길 15,37.48553054,127.0847979
13808,서울특별시 송파구 송파대로 567,37.51313818,127.0930487
13809,서울특별시 관악구 낙성대역길 19,37.47645876,126.9621221
13810,서울특별시 동작구 동작대로39길 22,37.49463598,126.981966
13811,서울특별시 영등포구 도영로 2-5,37.50714272,126.894325
13812,서울특별시 동작구 노량진로32길 156,37.50941807,126.9545075
13813,서울특별시 강남구 언주로81길 28,37.49990589,127.0413064
13814,서울특별시 송파구 송파대로 567,37.51313818,127.0930487
13815,서울특별시 동작구 여의대방로10길 100,37.49163821,126.9147147
13816,서울특별시 동작구 흑석한강로 12,37.50517984,126.9645125
13817,서울특별시 관악구 관악로30길 12,37.48413576,126.9606073
13818,서울특별시 강남구 자곡로 101,37.47265508,127.0958055
13819,서울특별시 송파구 오금로32길 31,37.50298368,127.1194889
13820,서울특별시 관악구 신사로 84,37.48605152,126.9122669
13821,서울특별시 관악구 남부순환로 1430,37.47923845,126.90904
13822,서울특별시 관악구 광신길 160,37.46603314,126.9273708
13823,서울특별시 서초구 남부순환로 2183,37.47511676,126.9910912
13824,서울특별시 송파구 올림픽로 99,37.51512525,127.07813
13825,서울특별시 서초구 명달로 10,37.47853993,127.0068041
13826,서울특별시 강남구 선릉로 8,37.48005758,127.0641534
13827,서울특별시 관악구 난곡로 66,37.46106525,126.9198754
13828,서울특별시 송파구 송파대로32길 33,37.49833241,127.1163372
13829,서울특별시 강남구 선릉로 8,37.48005758,127.0641534
13830,서울특별시 강남구 삼성로111길 8,37.51473151,127.0517391
13831,서울특별시 동작구 사당로13길 40,37.48609883,126.9721489
13832,서울특별시 서초구 서래로10길 26,37.49918798,126.9997214
13833,서울특별시 강남구 도산대로50길 43,37.51976762,127.0378687
13834,서울특별시 강남구 광평로19길 10,37.48548535,127.0866017
13835,서울특별시 강남구 광평로31길 27,37.48483786,127.089779
13836,서울특별시 동작구 동작대로29길 91,37.48802893,126.9765166
13837,서울특별시 동작구 동작대로29길 110,37.48982442,126.9777452
13838,서울특별시 강남구 자곡로 21,37.46734665,127.0932645
13839,서울특별시 강남구 광평로34길 55,37.48085608,127.0921723
13840,서울특별시 송파구 올림픽로 135,37.51673328,127.0898891
13841,서울특별시 동작구 동작대로29길 119,37.49088863,126.9760567
13842,서울특별시 송파구 잠실로 88,37.50753416,127.0932143
13843,서울특별시 동대문구 고산자로 534,37.58839329,127.0392185
13844,서울특별시 동대문구 한천로 248,37.58323604,127.071898
13845,서울특별시 성동구 난계로 84,37.55913142,127.0240799
13846,서울특별시 동대문구 장안벚꽃로 107,37.57105683,127.0751137
13847,서울특별시 동대문구 장안벚꽃로 167,37.5750721,127.0742821
13848,서울특별시 동대문구 장한로26가길 31,37.57024636,127.0715282
13849,서울특별시 동대문구 장한로26가길 31,37.57024636,127.0715282
13850,서울특별시 동대문구 장한로26가길 31,37.57024636,127.0715282
13851,서울특별시 동대문구 장한로26가길 31,37.57024636,127.0715282
13852,서울특별시 동대문구 장한로26가길 31,37.57024636,127.0715282
13853,서울특별시 동대문구 장한로26가길 31,37.57024636,127.0715282
13854,서울특별시 동대문구 장한로26가길 31,37.57024636,127.0715282
13855,서울특별시 동대문구 장한로26가길 31,37.57024636,127.0715282
13856,서울특별시 동대문구 장한로26가길 31,37.57024636,127.0715282
13857,서울특별시 동대문구 장한로26가길 31,37.57024636,127.0715282
13858,서울특별시 동대문구 장한로26가길 31,37.57024636,127.0715282
13859,서울특별시 동대문구 사가정로 245-3,37.57985517,127.0723098
13860,서울특별시 광진구 뚝섬로56가길 28,37.5280576,127.084672
13861,서울특별시 광진구 구의강변로 11,37.53225979,127.0909604
13862,서울특별시 강북구 삼양로27길 95,37.61826461,127.0156834
13863,서울특별시 동대문구 천호대로47길 62,37.57460986,127.044158
13864,서울특별시 동대문구 장안벚꽃로 107,37.57105683,127.0751137
13865,서울특별시 성동구 왕십리로 410,37.56660293,127.0240825
13866,서울특별시 성동구 무학로 33,37.56916416,127.0263479
13867,서울특별시 종로구 돈화문로11가길 59,37.5751119,126.9900576
13868,서울특별시 동대문구 한천로58길 139,37.60366066,127.0700264
13869,서울특별시 중구 소공로3길 29-8,37.5562357,126.982522
13870,서울특별시 성동구 마장로 271,37.56648427,127.0402766
13871,서울특별시 강북구 삼양로27길 19,37.61612381,127.0217414
13872,서울특별시 종로구 사직로8길 4,37.57467165,126.9684298
13873,서울특별시 성동구 고산자로 164,37.55506876,127.0354241
13874,서울특별시 성동구 행당로 82,37.55480888,127.0273997
13875,서울특별시 성북구 길음로 119,37.61049908,127.0163726
13876,서울특별시 광진구 군자로12길 46,37.55171279,127.0726727
13877,서울특별시 성북구 보문사길 111,37.58287311,127.0178911
13878,서울특별시 중구 퇴계로 447,37.56604198,127.0217218
13879,서울특별시 성북구 길음로13길 22,37.60944177,127.0193237
13880,서울특별시 성북구 길음로 16,37.60711804,127.0232626
13881,서울특별시 성동구 행당로 82,37.55480888,127.0273997
13882,서울특별시 성동구 독서당로 441,37.55410505,127.0319539
13883,서울특별시 성동구 고산자로 177,37.55573045,127.0335776
13884,서울특별시 중구 동호로10길 30,37.5551916,127.0163594
13885,서울특별시 성북구 삼선교로16길 35,37.58801843,127.0121412
13886,서울특별시 중구 퇴계로90길 74,37.56103798,127.0209858
13887,서울특별시 동대문구 왕산로22길 16,37.57731367,127.0331178
13888,서울특별시 성동구 상원길 63,37.5501345,127.047109
13889,서울특별시 성북구 장월로1길 28,37.60877249,127.045612
13890,서울특별시 동대문구 사가정로 148,37.57665904,127.0615677
13891,서울특별시 용산구 이촌로2가길 122,37.52546565,126.9544787
13892,서울특별시 성북구 장월로1길 28,37.60877249,127.045612
13893,서울특별시 동대문구 한천로63길 10,37.6049031,127.0637064
13894,서울특별시 중랑구 봉화산로56길 123,37.60354953,127.0989035
13895,서울특별시 종로구 통일로18길 9,37.57767072,126.9553549
13896,서울특별시 성북구 성북로31길 40-12,37.59519033,126.9888242
13897,서울특별시 용산구 이촌로 303,37.5189129,126.9811544
13898,서울특별시 성동구 마장로39길 43,37.56833772,127.0432916
13899,서울특별시 광진구 광나루로56길 32,37.53782408,127.0962194
13900,서울특별시 광진구 구의강변로 94,37.53813937,127.095065
13901,서울특별시 성북구 장월로9길 14,37.61155207,127.047834
13902,서울특별시 성북구 화랑로 210-26,37.60723717,127.05364
13903,서울특별시 용산구 이촌로 347,37.51910028,126.9897372
13904,서울특별시 성동구 매봉길 15,37.54605985,127.0138472
13905,서울특별시 성동구 독서당로 191,37.54459287,127.0119843
13906,서울특별시 중랑구 신내로 51,37.60597617,127.0947246
13907,서울특별시 중랑구 신내역로 165,37.61658268,127.1096317
13908,서울특별시 성북구 오패산로 90,37.60994709,127.0369136
13909,서울특별시 용산구 이촌로65가길 23,37.5223303,126.9727684
13910,서울특별시 성동구 마장로42길 16,37.56504066,127.0460385
13911,서울특별시 중구 다산로 32,37.54715055,127.0057062
13912,서울특별시 중랑구 신내로21길 16,37.61680164,127.0868849
13913,서울특별시 중랑구 중랑천로 286,37.61069547,127.0734802
13914,서울특별시 중랑구 신내로7가길 31,37.60207313,127.0934243
13915,서울특별시 중랑구 용마산로 669,37.609769,127.0989769
13916,서울특별시 강북구 솔샘로 174,37.61763836,127.0105997
13917,서울특별시 성북구 종암로25길 30,37.60149226,127.0310804
13918,서울특별시 성북구 종암로24가길 53,37.60084117,127.0379642
13919,서울특별시 성북구 종암로5길 26,37.59479891,127.0339276
13920,서울특별시 성북구 북악산로29길 67,37.59503244,127.0336436
13921,서울특별시 성동구 독서당로 175,37.54161608,127.0098102
13922,서울특별시 강북구 삼양로19길 113,37.61705556,127.0177233
13923,서울특별시 성동구 독서당로 218,37.54262944,127.0155544
13924,서울특별시 중랑구 신내로 127,37.61086744,127.0956519
13925,서울특별시 성북구 북악산로 844,37.59738598,127.019323
13926,서울특별시 동대문구 사가정로 148,37.57665904,127.0615677
13927,서울특별시 동대문구 사가정로 65,37.57550604,127.0496959
13928,서울특별시 동대문구 사가정로 65,37.57550604,127.0496959
13929,서울특별시 동대문구 전농로16길 51,37.57833421,127.0604383
13930,서울특별시 동대문구 사가정로 190,37.57734724,127.064387
13931,서울특별시 용산구 한강대로 211,37.53718336,126.9726003
13932,서울특별시 성북구 북악산로 844,37.59738598,127.019323
13933,서울특별시 성북구 성북로4길 52,37.59447253,127.012706
13934,서울특별시 성북구 성북로4길 52,37.59447253,127.012706
13935,서울특별시 용산구 이촌로58길 16,37.52053651,126.9681546
13936,서울특별시 동대문구 한천로58길 107,37.6012567,127.0697682
13937,서울특별시 동대문구 한천로58길 107,37.6012567,127.0697682
13938,서울특별시 동대문구 외대역동로1길 24,37.59180913,127.0634709
13939,서울특별시 광진구 구의강변로1길 44,37.52989578,127.0896265
13940,서울특별시 도봉구 마들로 859-19,37.68604183,127.0467647
13941,서울특별시 도봉구 마들로 684-19,37.67521459,127.048765
13942,서울특별시 도봉구 마들로 724,37.67454408,127.0476623
13943,서울특별시 서대문구 가재울미래로 2,37.57440199,126.9179078
13944,서울특별시 서대문구 거북골로 91-6,37.57546837,126.9195484
13945,서울특별시 도봉구 마들로 646,37.66761985,127.0468178
13946,서울특별시 노원구 마들로 31,37.61872537,127.0670846
13947,서울특별시 도봉구 방학로 193,37.66093246,127.0278928
13948,서울특별시 도봉구 해등로 295,37.65709893,127.0243731
13949,서울특별시 노원구 덕릉로73길 28,37.65247558,127.0719352
13950,서울특별시 노원구 동일로207길 17,37.64273683,127.0641728
13951,서울특별시 노원구 중계로14가길 5,37.64876004,127.0819886
13952,서울특별시 노원구 동일로216길 47,37.65298873,127.0635586
13953,서울특별시 노원구 동일로216길 47,37.65298873,127.0635586
13954,서울특별시 노원구 동일로245가길 41,37.68066639,127.0538014
13955,서울특별시 노원구 노원로 428,37.65449462,127.0681033
13956,서울특별시 노원구 한글비석로 480,37.66675966,127.065753
13957,서울특별시 노원구 한글비석로 396,37.66230302,127.0735817
13958,서울특별시 노원구 한글비석로 396,37.66230302,127.0735817
13959,서울특별시 노원구 덕릉로 459-18,37.64697866,127.0614643
13960,서울특별시 노원구 동일로246길 39,37.67708485,127.0571871
13961,서울특별시 노원구 동일로 1456,37.66067691,127.0614956
13962,서울특별시 노원구 동일로 1456,37.66067691,127.0614956
13963,서울특별시 노원구 동일로 1456,37.66067691,127.0614956
13964,서울특별시 노원구 노원로28길 62,37.65461428,127.0712845
13965,서울특별시 은평구 통일로80길 1-1,37.62011156,126.920875
13966,서울특별시 서대문구 가재울미래로 2,37.57440199,126.9179078
13967,서울특별시 은평구 서오릉로23길 9-8,37.61529836,126.9068723
13968,서울특별시 노원구 섬밭로 229,37.63661786,127.0645392
13969,서울특별시 서대문구 통일로 510,37.59457019,126.9411674
13970,서울특별시 서대문구 홍은중앙로1길 65,37.59848343,126.9444566
13971,서울특별시 노원구 섬밭로 229,37.63661786,127.0645392
13972,서울특별시 서대문구 홍제천로 136,37.57513727,126.9275107
13973,서울특별시 노원구 공릉로59길 25,37.63230916,127.0717249
13974,서울특별시 은평구 백련산로 38,37.58927061,126.9230906
13975,서울특별시 은평구 불광천길 478,37.59528137,126.9156714
13976,서울특별시 서대문구 통일로39가길 57,37.58990008,126.9409853
13977,서울특별시 서대문구 통일로39가길 57,37.58990008,126.9409853
13978,서울특별시 서대문구 홍제내길 168,37.58871772,126.9378537
13979,서울특별시 서대문구 통일로35길 40,37.58676646,126.9455635
13980,서울특별시 서대문구 북아현로1가길 20,37.55806808,126.9513991
13981,서울특별시 서대문구 북아현로1길 50,37.55969,126.9528112
13982,서울특별시 서대문구 가재울미래로 2,37.57440199,126.9179078
13983,서울특별시 노원구 공릉로59길 25,37.63230916,127.0717249
13984,서울특별시 노원구 섬밭로 232,37.63661517,127.0656682
13985,서울특별시 강북구 오현로 156,37.62627408,127.0369032
13986,서울특별시 마포구 마포대로 201,37.5522161,126.9555037
13987,서울특별시 마포구 마포대로 195,37.55243392,126.9542238
13988,서울특별시 은평구 진관2로 60,37.63391604,126.922797
13989,서울특별시 은평구 진관2로 60,37.63391604,126.922797
13990,서울특별시 은평구 갈현로 300,37.62360899,126.9174194
13991,서울특별시 은평구 갈현로 300,37.62360899,126.9174194
13992,서울특별시 은평구 갈현로 300,37.62360899,126.9174194
13993,서울특별시 은평구 서오릉로 228,37.61541949,126.9091269
13994,서울특별시 마포구 마포대로 167,37.55021872,126.9537358
13995,서울특별시 마포구 마포대로7길 22,37.54919304,126.9515251
13996,서울특별시 은평구 은평터널로 163,37.59331167,126.9072059
13997,서울특별시 은평구 갈현로3나길 22,37.60279809,126.9068324
13998,서울특별시 도봉구 도봉로136나길 40,37.6563182,127.0442932
13999,서울특별시 도봉구 도봉로110다길 51,37.64320468,127.0329434
14000,서울특별시 도봉구 해등로12길 44,37.65302339,127.0423286
14001,서울특별시 도봉구 노해로69길 103,37.65778635,127.0492757
14002,서울특별시 도봉구 덕릉로63가길 43,37.64292288,127.0387776
14003,서울특별시 마포구 백범로 230,37.54181716,126.9546186
14004,서울특별시 마포구 백범로 212,37.54243151,126.9533655
14005,서울특별시 도봉구 시루봉로2길 62,37.65510069,127.0314124
14006,서울특별시 도봉구 해등로 195,37.65783785,127.0337873
14007,서울특별시 노원구 공릉로41가길 19,37.62535564,127.0788991
14008,서울특별시 도봉구 우이천로 304,37.64510569,127.0298113
14009,서울특별시 도봉구 시루봉로 58,37.65581532,127.0294107
14010,서울특별시 도봉구 마들로 859-19,37.68604183,127.0467647
14011,서울특별시 송파구 송파대로8길 10,37.47689671,127.1291786
14012,서울특별시 강동구 상암로3길 77,37.55417146,127.1272373
14013,서울특별시 강동구 고덕로 131,37.55516675,127.1438388
14014,서울특별시 강동구 올림픽로89길 39-4,37.5476333,127.1233961
14015,서울특별시 강동구 올림픽로81길 15,37.54414353,127.1244508
14016,서울특별시 강동구 천중로 161,37.54164126,127.1378492
14017,서울특별시 강동구 양재대로 1706,37.55795484,127.1462943
14018,서울특별시 강동구 고덕로61길 37,37.55675612,127.1519579
14019,서울특별시 강동구 아리수로50길 50,37.55768646,127.1485777
14020,서울특별시 강동구 동남로49길 60-5,37.53303819,127.1461367
14021,서울특별시 강동구 명일로 172,37.53413819,127.1450708
14022,서울특별시 송파구 중대로 24,37.48812575,127.1110591
14023,서울특별시 송파구 송이로34길 26,37.48578369,127.1303527
14024,서울특별시 송파구 송이로31길 56,37.49086162,127.1363837
14025,서울특별시 송파구 송이로31길 56,37.49086162,127.1363837
14026,서울특별시 송파구 위례광장로 230,37.47861981,127.1435334
14027,서울특별시 송파구 위례광장로 121,37.47686504,127.1382163
14028,서울특별시 송파구 위례광장로 163,37.4796684,127.1393228
14029,서울특별시 강동구 양재대로101길 46,37.53289332,127.1353196
14030,서울특별시 송파구 오금로 405,37.49826218,127.1351623
14031,서울특별시 송파구 양재대로72길 15,37.5093643,127.1290966
14032,서울특별시 강동구 상암로51길 61,37.5486615,127.1461524
14033,서울특별시 강동구 구천면로 557,37.55112552,127.1596713
14034,서울특별시 송파구 위례성대로8길 28,37.51273157,127.1183997
14035,서울특별시 송파구 위례성대로8길 28,37.51273157,127.1183997
14036,서울특별시 송파구 오금로11길 33,37.51562298,127.1105896
14037,서울특별시 송파구 오금로56길 28,37.49234594,127.1431628
14038,서울특별시 송파구 양산로4길 16,37.48920968,127.1449643
14039,서울특별시 강동구 천호대로 1120,37.53445052,127.1356292
14040,서울특별시 송파구 위례광장로 121,37.47686504,127.1382163
14041,서울특별시 강동구 명일로 376,37.55232896,127.1509152
14042,서울특별시 강동구 고덕로 210,37.5538093,127.147061
14043,서울특별시 강동구 동남로71길 41,37.55009506,127.1534128
14044,서울특별시 강동구 상암로 210-32,37.54530933,127.1457191
14045,서울특별시 송파구 위례광장로 163,37.4796684,127.1393228
14046,서울특별시 송파구 위례광장로 121,37.47686504,127.1382163
14047,서울특별시 송파구 위례광장로 136,37.47719582,127.1423748
14048,서울특별시 강동구 천호대로193길 37,37.53753608,127.1435606
14049,서울특별시 강동구 고덕로 131,37.55516675,127.1438388
14050,서울특별시 강동구 고덕로 130,37.55420667,127.1409011
14051,서울특별시 강동구 상암로 11,37.55344749,127.12566
14052,서울특별시 강동구 상암로 11,37.55344749,127.12566
14053,서울특별시 강동구 천호옛12길 27,37.53515427,127.1271458
14054,서울특별시 강동구 풍성로 203,37.52972967,127.1344182
14055,서울특별시 송파구 문정로 83,37.48920432,127.130232
14056,서울특별시 송파구 송이로31길 56,37.49086162,127.1363837
14057,서울특별시 송파구 송파대로 111,37.47968706,127.1249798
14058,서울특별시 강동구 아리수로94길 72,37.5607223,127.1762696
14059,서울특별시 강동구 아리수로97길 68,37.56873076,127.1766546
14060,서울특별시 송파구 양재대로 1218,37.51669099,127.1377124
14061,서울특별시 송파구 오금로31길 27,37.50901146,127.1225965
14062,서울특별시 송파구 오금로68길 25-5,37.49087194,127.1495273
14063,서울특별시 강동구 천중로 6,37.54580343,127.1223002
14064,서울특별시 강동구 구천면로 366,37.55011366,127.1390467
14065,서울특별시 강동구 천호대로193길 37,37.53753608,127.1435606
14066,서울특별시 강동구 동남로79길 26,37.55918388,127.1537442
14067,서울특별시 강동구 아리수로50길 50,37.55768646,127.1485777
14068,서울특별시 강동구 명일로 102,37.5276464,127.1425472
14069,서울특별시 강동구 양재대로96길 79,37.52904287,127.1414901
14070,서울특별시 송파구 양재대로72길 5,37.50995749,127.1275468
14071,서울특별시 송파구 성내천로6길 1-13,,
14072,서울특별시 종로구 통일로18길 34,37.57589932,126.9592349
14073,서울특별시 성북구 보문사길 112,37.58093044,127.0175983
14074,서울특별시 종로구 창신길 140-8,37.5773206,127.0098856
14075,서울특별시 종로구 청계천로 391,37.57218912,127.0206865
14076,서울특별시 광진구 뚝섬로31길 20,37.53600541,127.0681185
14077,서울특별시 광진구 뚝섬로36길 75,37.53125923,127.0696294
14078,서울특별시 광진구 뚝섬로36길 75,37.53125923,127.0696294
14079,서울특별시 종로구 송월길 99,37.5708611,126.9623523
14080,서울특별시 종로구 송월길 99,37.5708611,126.9623523
14081,서울특별시 성북구 보문사길 111,37.58287311,127.0178911
14082,서울특별시 강북구 월계로21가길 41,37.61571429,127.0367331
14083,서울특별시 강북구 솔샘로 174,37.61763836,127.0105997
14084,서울특별시 성북구 보문사길 111,37.58287311,127.0178911
14085,서울특별시 종로구 통일로18길 34,37.57589932,126.9592349
14086,서울특별시 종로구 통일로 246-20,37.5769322,126.9618517
14087,서울특별시 강북구 솔샘로 174,37.61763836,127.0105997
14088,서울특별시 강북구 삼양로27길 19,37.61612381,127.0217414
14089,서울특별시 강북구 도봉로33길 18,37.62156408,127.0265024
14090,서울특별시 종로구 통일로 246-20,37.5769322,126.9618517
14091,서울특별시 중랑구 공릉로18길 59,37.61872204,127.0815373
14092,서울특별시 성북구 한천로 509,37.60698616,127.0657342
14093,서울특별시 동대문구 한천로58길 139,37.60366066,127.0700264
14094,서울특별시 성북구 낙산길 243-15,37.58267456,127.0144138
14095,서울특별시 성북구 64,,
14096,서울특별시 성북구 동소문로34길 73,37.5997975,127.0223277
14097,서울특별시 성북구 동소문로34길 73,37.5997975,127.0223277
14098,서울특별시 성북구 정릉로 402-16,37.60385948,127.0276308
14099,서울특별시 성북구 종암로21길 127,37.60281032,127.029324
14100,서울특별시 용산구 이촌로 201,37.52134838,126.9701562
14101,서울특별시 성동구 마장로 137,37.56782502,127.0250536
14102,서울특별시 동대문구 한천로4길 13-6,37.56372042,127.060089
14103,서울특별시 동대문구 천호대로97길 9,37.56136855,127.0699154
14104,서울특별시 동대문구 장한로 119,37.57144971,127.0702129
14105,서울특별시 동대문구 장한로 119,37.57144971,127.0702129
14106,서울특별시 동대문구 한천로63길 10,37.6049031,127.0637064
14107,서울특별시 용산구 이촌로 201,37.52134838,126.9701562
14108,서울특별시 용산구 이촌로 201,37.52134838,126.9701562
14109,서울특별시 동대문구 한천로63길 10,37.6049031,127.0637064
14110,서울특별시 동대문구 한천로58길 47,37.60075075,127.0687695
14111,서울특별시 중랑구 동일로 752,37.59700909,127.0820707
14112,서울특별시 광진구 아차산로 599,37.54690769,127.1041757
14113,서울특별시 동대문구 제기로 131,37.58802816,127.0492262
14114,서울특별시 광진구 아차산로70길 61,37.54022537,127.0999667
14115,서울특별시 광진구 아차산로 549,37.54335816,127.1017442
14116,서울특별시 성북구 길음로 74,37.60928966,127.0210339
14117,서울특별시 성북구 숭인로2길 61,37.60935341,127.0249739
14118,서울특별시 광진구 광나루로 361,37.54844573,127.0697457
14119,서울특별시 용산구 한강대로 372,37.55163158,126.9729122
14120,서울특별시 용산구 한강대로53길 16,37.5342236,126.970847
14121,서울특별시 용산구 이촌로 260,37.51857314,126.9762116
14122,서울특별시 성동구 성수일로11길 9,37.54886082,127.0504465
14123,서울특별시 성동구 독서당로 375,37.54953757,127.0290009
14124,서울특별시 성동구 행당로 99,37.55876416,127.0296981
14125,서울특별시 성동구 행당로 82,37.55480888,127.0273997
14126,서울특별시 성동구 행당로 79,37.55820535,127.027507
14127,서울특별시 용산구 이촌로87길 13,37.51899266,126.9776769
14128,서울특별시 중랑구 신내로 127,37.61086744,127.0956519
14129,서울특별시 중랑구 신내로19길 42,37.61410176,127.0910347
14130,서울특별시 중랑구 신내로 128,37.60894053,127.0978091
14131,서울특별시 용산구 청파로 213,37.53859693,126.9703493
14132,서울특별시 종로구 돈화문로11가길 59,37.5751119,126.9900576
14133,서울특별시 동대문구 답십리로56길 21,37.57006932,127.0598603
14134,서울특별시 동대문구 한천로37길 33,37.57632455,127.0658133
14135,서울특별시 동대문구 답십리로 130,37.57285496,127.0524012
14136,서울특별시 성동구 난계로 100,37.5615293,127.0246515
14137,서울특별시 성동구 난계로 84,37.55913142,127.0240799
14138,서울특별시 성동구 난계로 84,37.55913142,127.0240799
14139,서울특별시 성동구 난계로 84,37.55913142,127.0240799
14140,서울특별시 성북구 솔샘로 120,37.61662482,127.0097831
14141,서울특별시 중구 다산로36길 110,37.55986467,127.0190343
14142,서울특별시 중랑구 동일로 932,37.61383938,127.0775571
14143,서울특별시 중구 다산로36길 110,37.55986467,127.0190343
14144,서울특별시 종로구 율곡로19길 41-6,37.57696373,127.0071735
14145,서울특별시 동대문구 한천로 248,37.58323604,127.071898
14146,서울특별시 동대문구 한천로 248,37.58323604,127.071898
14147,서울특별시 성북구 정릉로26길 8,37.60386708,127.0108477
14148,서울특별시 성동구 고산자로2길 65,37.55619853,127.0388365
14149,서울특별시 성북구 보국문로 116,37.61514195,127.0077019
14150,서울특별시 중랑구 공릉로4길 4,37.61298501,127.0781915
14151,서울특별시 성북구 오패산로 90,37.60994709,127.0369136
14152,서울특별시 성북구 오패산로16가길 40,37.60990552,127.0386975
14153,서울특별시 성동구 독서당로 218,37.54262944,127.0155544
14154,서울특별시 종로구 대학로 47,37.57546396,127.0018417
14155,서울특별시 중구 다산로36길 109,37.56050413,127.0229704
14156,서울특별시 성동구 매봉길 15,37.54605985,127.0138472
14157,서울특별시 성동구 매봉길 15,37.54605985,127.0138472
14158,서울특별시 광진구 구의강변로 42,37.53557909,127.092918
14159,서울특별시 광진구 구의로16길 58-1,37.54238529,127.0928585
14160,서울특별시 동대문구 서울시립대로 75,37.57825213,127.0478481
14161,서울특별시 성북구 장월로1길 28,37.60877249,127.045612
14162,서울특별시 동대문구 사가정로 148,37.57665904,127.0615677
14163,서울특별시 성북구 돌곶이로 220,37.61901822,127.0464327
14164,서울특별시 성동구 독서당로 343,37.54981177,127.0270079
14165,서울특별시 성동구 마장로37길 7,37.56693855,127.0386845
14166,서울특별시 성동구 살곶이길 50,37.5696275,127.041524
14167,서울특별시 양천구 오목로 300,37.5248304,126.8700225
14168,서울특별시 강서구 공항대로43길 104,37.56023933,126.8516942
14169,서울특별시 강서구 강서로56나길 110,37.56351515,126.8428388
14170,서울특별시 양천구 신정로11길 20,37.5119634,126.8387028
14171,서울특별시 양천구 중앙로29길 102,37.52045815,126.8489981
14172,서울특별시 양천구 목동서로 400,37.51500787,126.8578385
14173,서울특별시 양천구 목동동로 100,37.51498201,126.8651323
14174,서울특별시 양천구 목동동로 130,37.514999,126.8712369
14175,서울특별시 양천구 목동동로 130,37.514999,126.8712369
14176,서울특별시 양천구 목동서로 340,37.51942468,126.8640382
14177,서울특별시 양천구 목동남로4길 6-23,37.50760051,126.8651091
14178,서울특별시 양천구 신정로 293,37.51430989,126.8550432
14179,서울특별시 양천구 신정로 293,37.51430989,126.8550432
14180,서울특별시 양천구 신정로 260,37.51119304,126.8519831
14181,서울특별시 양천구 신목로2길 11,37.51926628,126.8754758
14182,서울특별시 양천구 신목로 23,37.51755747,126.8743107
14183,서울특별시 양천구 신목로 23,37.51755747,126.8743107
14184,서울특별시 양천구 목동서로 401,37.51541022,126.8596086
14185,서울특별시 양천구 목동남로4길 81,37.51004896,126.8678756
14186,서울특별시 양천구 신목로 43,37.51916661,126.8726634
14187,서울특별시 영등포구 버드나루로 130,37.5305725,126.9080121
14188,서울특별시 구로구 신도림로19길 16,37.51158208,126.8846169
14189,서울특별시 구로구 경인로65길 16-15,37.50935488,126.8865614
14190,서울특별시 마포구 백범로 10,37.55355555,126.9367996
14191,서울특별시 영등포구 도신로 100,37.50675091,126.9030867
14192,서울특별시 구로구 새말로 31,37.50438037,126.8848254
14193,서울특별시 구로구 새말로 31,37.50438037,126.8848254
14194,서울특별시 영등포구 여의대방로43나길 25,37.50662535,126.920787
14195,서울특별시 구로구 가마산로 231,37.49501733,126.8846651
14196,서울특별시 구로구 구일로8길 92,37.49773937,126.8763103
14197,서울특별시 구로구 가마산로 283,37.49690482,126.8913849
14198,서울특별시 구로구 가마산로 268,37.49561647,126.8903189
14199,서울특별시 구로구 시흥대로161길 50,37.47979164,126.8967356
14200,서울특별시 양천구 신월로 99,37.5184159,126.8351572
14201,서울특별시 양천구 오목로1길 27,37.52342905,126.8368283
14202,서울특별시 마포구 망원로2길 103,37.55334149,126.9050694
14203,서울특별시 강서구 마곡중앙3로 74,37.56469676,126.8184329
14204,서울특별시 강서구 마곡서1로 100,37.5657541,126.8196234
14205,서울특별시 강서구 양천로47길 118,37.57564019,126.8368535
14206,서울특별시 금천구 금하로 750,37.44907344,126.9136586
14207,서울특별시 금천구 금하로 816,37.44977863,126.9200208
14208,서울특별시 금천구 시흥대로47길 43,37.45065531,126.8989553
14209,서울특별시 영등포구 당산로 214,37.53293123,126.902834
14210,서울특별시 구로구 경인로47길 128,37.50458538,126.8639211
14211,서울특별시 구로구 중앙로12길 7,37.50604755,126.8613085
14212,서울특별시 구로구 경인로 343,37.4983033,126.8574325
14213,서울특별시 영등포구 가마산로 442,37.50498194,126.9095271
14214,서울특별시 금천구 시흥대로 165,37.44790332,126.9007227
14215,서울특별시 금천구 독산로36길 36,37.4594883,126.9069603
14216,서울특별시 구로구 디지털로27다길 57-5,37.48698587,126.8897974
14217,서울특별시 구로구 경인로65길 16-15,37.50935488,126.8865614
14218,서울특별시 금천구 시흥대로152길 25,37.47726752,126.9000454
14219,서울특별시 영등포구 국회대로54길 10,37.52365869,126.9064302
14220,서울특별시 금천구 벚꽃로 73,37.46291004,126.8904233
14221,서울특별시 마포구 토정로31길 24,37.54234256,126.943794
14222,서울특별시 마포구 월드컵북로 194,37.56860915,126.907456
14223,서울특별시 마포구 월드컵북로 235,37.56970041,126.9014174
14224,서울특별시 강서구 양천로73길 80,37.55415856,126.8743473
14225,서울특별시 강서구 양천로 731,37.55025171,126.8773969
14226,서울특별시 양천구 목동중앙북로 38,37.54790385,126.8669548
14227,서울특별시 양천구 목동중앙로 11,37.53229005,126.8669377
14228,서울특별시 양천구 목동중앙남로 100,37.54278062,126.8637411
14229,서울특별시 양천구 목동동로 411,37.53672622,126.8822136
14230,서울특별시 양천구 목동로 212,37.52924989,126.8670932
14231,서울특별시 양천구 목동동로 350,37.53515661,126.8818744
14232,서울특별시 양천구 목동서로 70,37.53704736,126.8764175
14233,서울특별시 양천구 목동중앙본로1길 11,37.53820928,126.8700341
14234,서울특별시 영등포구 양평로17길 36,37.53440211,126.8944285
14235,서울특별시 양천구 목동중앙서로 37,37.53357925,126.8690813
14236,서울특별시 양천구 목동중앙서로 37,37.53357925,126.8690813
14237,서울특별시 마포구 월드컵로 338,37.57277235,126.8900873
14238,서울특별시 마포구 월드컵로 338,37.57277235,126.8900873
14239,서울특별시 강서구 강서로47길 108,37.55356537,126.8305342
14240,서울특별시 강서구 강서로 348,37.55707841,126.8380811
14241,서울특별시 양천구 목동중앙서로11길 49-5,37.53428824,126.8670594
14242,서울특별시 마포구 독막로 266,37.54386754,126.9423896
14243,서울특별시 영등포구 여의동로3길 10,37.51811729,126.925196
14244,서울특별시 영등포구 여의나루로 12,37.51966965,126.9216224
14245,서울특별시 영등포구 여의나루로 126,37.52616298,126.9328532
14246,서울특별시 영등포구 여의나루로 126,37.52616298,126.9328532
14247,서울특별시 마포구 독막로28길 10,37.54695507,126.9362273
14248,서울특별시 마포구 토정로18길 11,37.54384804,126.9348545
14249,서울특별시 구로구 경인로65길 16-15,37.50935488,126.8865614
14250,서울특별시 구로구 경인로 584,37.50382118,126.881697
14251,서울특별시 구로구 신도림로 16,37.50512282,126.882191
14252,서울특별시 구로구 신도림로 16,37.50512282,126.882191
14253,서울특별시 구로구 신도림로19길 16,37.51158208,126.8846169
14254,서울특별시 마포구 연남로 30,37.56271074,126.921857
14255,서울특별시 구로구 개봉로20길 158,37.49204228,126.8607374
14256,서울특별시 영등포구 도신로29길 28,37.51175428,126.9023257
14257,서울특별시 구로구 경인로8길 75,37.4928695,126.8395728
14258,서울특별시 구로구 경인로 382,37.496373,126.8630822
14259,서울특별시 구로구 남부순환로95길 88,37.49532522,126.8517306
14260,서울특별시 구로구 도림로 59,37.4898994,126.8889619
14261,서울특별시 구로구 남부순환로 775,37.50156787,126.8471623
14262,서울특별시 구로구 개봉로2길 133-15,37.48950363,126.8600708
14263,서울특별시 강서구 강서로 532,37.57127504,126.8422775
14264,서울특별시 강서구 양천로14길 17,37.57236238,126.8105543
14265,서울특별시 강남구 언주로30길 21,37.48886577,127.0520146
14266,서울특별시 서초구 명달로17길 40,37.48554068,127.001764
14267,서울특별시 송파구 올림픽로 99,37.51512525,127.07813
14268,서울특별시 서초구 강남대로53길 11,37.49396164,127.0279164
14269,서울특별시 강남구 압구정로29길 71,37.53360328,127.0283258
14270,서울특별시 관악구 은천로15길 24,37.48780327,126.9443522
14271,서울특별시 관악구 관악로 304,37.49205057,126.957711
14272,서울특별시 관악구 관악로40길 60,37.49331457,126.9607896
14273,서울특별시 관악구 관악로30길 12,37.48413576,126.9606073
14274,서울특별시 관악구 관악로 125,37.47647214,126.95208
14275,서울특별시 관악구 성현로 80,37.48984744,126.9529855
14276,서울특별시 관악구 관악로 195,37.48256382,126.9530987
14277,서울특별시 서초구 방배로19길 67,37.48327609,126.991927
14278,서울특별시 서초구 방배로45길 27,37.49603048,126.9860623
14279,서울특별시 동작구 사당로16아길 43,37.48056197,126.9693294
14280,서울특별시 동작구 상도로 346-1,37.49678998,126.9516675
14281,서울특별시 동작구 상도로 207,37.50557126,126.9418563
14282,서울특별시 강남구 논현로111길 39,37.50682324,127.030423
14283,서울특별시 강남구 헌릉로590길 63,37.46104654,127.1015409
14284,서울특별시 서초구 서초대로1길 30,37.48923288,126.9836143
14285,서울특별시 서초구 남부순환로 2311-12,37.47693254,127.0046568
14286,서울특별시 강남구 학동로 409,37.51811173,127.043919
14287,서울특별시 강남구 광평로19길 10,37.48548535,127.0866017
14288,서울특별시 서초구 동산로12길 13-16,37.47130033,127.0461556
14289,서울특별시 강남구 개포로 310,37.48028672,127.0578478
14290,서울특별시 강남구 개포로109길 9,37.49575182,127.0751013
14291,서울특별시 동작구 사당로13길 31,37.485803,126.9712548
14292,서울특별시 동작구 사당로 300,37.48437909,126.9802816
14293,서울특별시 송파구 송이로 50,37.50059879,127.1181615
14294,서울특별시 강남구 영동대로128길 15,37.52015718,127.0592103
14295,서울특별시 동작구 만양로 19,37.50707174,126.9457182
14296,서울특별시 동작구 만양로 26,37.50762648,126.9495479
14297,서울특별시 강남구 삼성로64길 5,37.5004475,127.0605138
14298,서울특별시 강남구 삼성로64길 12,37.49991043,127.0611753
14299,서울특별시 강남구 선릉로 222,37.49586698,127.0547491
14300,서울특별시 강남구 언주로 316,37.49623226,127.0462849
14301,서울특별시 강남구 선릉로69길 20,37.49874723,127.0509235
14302,서울특별시 강남구 역삼로 306,37.49897727,127.0469596
14303,서울특별시 강남구 도곡로7길 22,37.49237423,127.0347712
14304,서울특별시 서초구 신반포로33길 66,37.51440937,127.0081356
14305,서울특별시 서초구 잠원로 166-4,37.51730271,127.0110745
14306,서울특별시 서초구 잠원로 117,37.51451892,127.0069957
14307,서울특별시 동작구 동작대로29길 110,37.48982442,126.9777452
14308,서울특별시 강남구 언주로30길 21,37.48886577,127.0520146
14309,서울특별시 강남구 언주로30길 56,37.48806952,127.0534832
14310,서울특별시 강남구 언주로30길 10,37.48733867,127.0515539
14311,서울특별시 서초구 서초대로 334,37.49471037,127.018291
14312,서울특별시 서초구 고무래로 35,37.50446749,127.0124545
14313,서울특별시 서초구 신반포로 270,37.50786022,127.011582
14314,서울특별시 서초구 서운로 104,37.4934156,127.0264914
14315,서울특별시 송파구 올림픽로35길 104,37.51981736,127.0992977
14316,서울특별시 송파구 올림픽로 435,37.5213593,127.1049717
14317,서울특별시 송파구 올림픽로 435,37.5213593,127.1049717
14318,서울특별시 서초구 사임당로19길 10,37.4909813,127.0198343
14319,서울특별시 송파구 올림픽로 435,37.5213593,127.1049717
14320,서울특별시 송파구 올림픽로 435,37.5213593,127.1049717
14321,서울특별시 동작구 여의대방로10길 38,37.49540996,126.9125665
14322,서울특별시 동작구 여의대방로 22,37.49109691,126.9118137
14323,서울특별시 송파구 올림픽로47길 9,37.52741656,127.1180405
14324,서울특별시 송파구 토성로 37,37.53109771,127.1155537
14325,서울특별시 동작구 여의대방로44길 47,37.50992351,126.9304186
14326,서울특별시 동작구 등용로 37,37.50523976,126.9331339
14327,서울특별시 송파구 동남로 193,37.49469823,127.1292231
14328,서울특별시 관악구 신원로 26,37.48115498,126.9282708
14329,서울특별시 관악구 신원로 26,37.48115498,126.9282708
14330,서울특별시 관악구 미성5길 40,37.4733555,126.9141184
14331,서울특별시 송파구 동남로17길 15,37.4963769,127.1307733
14332,서울특별시 강남구 광평로10길 15,37.48289938,127.0834454
14333,서울특별시 송파구 백제고분로 348,37.50408278,127.1052197
14334,서울특별시 동작구 장승배기로 26,37.50066424,126.943415
14335,서울특별시 서초구 바우뫼로7길 29,37.47070547,127.0231377
14336,서울특별시 은평구 갈현로1길 31,37.59873617,126.9061658
14337,서울특별시 강북구 한천로109길 69,37.62681083,127.0414226
14338,서울특별시 강북구 노해로 34,37.63854893,127.0230872
14339,서울특별시 도봉구 우이천로 367,37.64788419,127.0240704
14340,서울특별시 도봉구 우이천로32길 67,37.65079612,127.0251367
14341,서울특별시 도봉구 노해로38길 15,37.64574887,127.0265515
14342,서울특별시 도봉구 시루봉로6길 53,37.65941764,127.0300835
14343,서울특별시 도봉구 우이천로 328,37.64687853,127.0288178
14344,서울특별시 도봉구 방학로11길 36,37.66037012,127.0319369
14345,서울특별시 도봉구 해등로 286-5,37.65772975,127.0241592
14346,서울특별시 도봉구 방학로15길 40,37.65860084,127.0240426
14347,서울특별시 도봉구 도봉로136가길 73,37.65565256,127.0428049
14348,서울특별시 도봉구 노해로69길 103,37.65778635,127.0492757
14349,서울특별시 도봉구 노해로66길 21,37.65039161,127.0473309
14350,서울특별시 도봉구 해등로 118,37.65408273,127.0421874
14351,서울특별시 도봉구 해등로16길 12,37.65623484,127.0405729
14352,서울특별시 도봉구 해등로12길 44,37.65302339,127.0423286
14353,서울특별시 도봉구 덕릉로 349,37.64503774,127.0460993
14354,서울특별시 도봉구 덕릉로66길 17,37.64371212,127.0539524
14355,서울특별시 도봉구 마들로 684-19,37.67521459,127.048765
14356,서울특별시 노원구 마들로 59,37.62262082,127.0668819
14357,서울특별시 노원구 덕릉로60길 185,37.63301244,127.0440717
14358,서울특별시 노원구 석계로 49,37.61721774,127.0625099
14359,서울특별시 노원구 마들로 111,37.62383436,127.0647781
14360,서울특별시 노원구 화랑로 421,37.61749956,127.0743294
14361,서울특별시 노원구 공릉로 213,37.62788039,127.0773923
14362,서울특별시 노원구 동일로198가길 13,37.62980243,127.0726188
14363,서울특별시 노원구 공릉로34길 62,37.62336469,127.0821222
14364,서울특별시 노원구 섬밭로 134,37.62838373,127.0693349
14365,서울특별시 노원구 섬밭로 229,37.63661786,127.0645392
14366,서울특별시 노원구 공릉로59길 28,37.63423256,127.0696602
14367,서울특별시 노원구 섬밭로 196,37.63399762,127.0672779
14368,서울특별시 노원구 섬밭로 196,37.63399762,127.0672779
14369,서울특별시 노원구 공릉로 351,37.63812512,127.06791
14370,서울특별시 노원구 상계로 193-14,37.662163,127.0743053
14371,서울특별시 노원구 한글비석로 480,37.66675966,127.065753
14372,서울특별시 노원구 노원로28길 15,37.65400888,127.0692161
14373,서울특별시 노원구 덕릉로94길 21,37.66355722,127.0766339
14374,서울특별시 노원구 동일로245가길 41,37.68066639,127.0538014
14375,서울특별시 노원구 한글비석로52길 66,37.66704032,127.0681213
14376,서울특별시 노원구 동일로241길 53,37.67801899,127.0529134
14377,서울특별시 노원구 동일로241길 53,37.67801899,127.0529134
14378,서울특별시 노원구 동일로227길 86,37.67041003,127.05273
14379,서울특별시 노원구 동일로216길 47,37.65298873,127.0635586
14380,서울특별시 노원구 노해로 508,37.65470356,127.066191
14381,서울특별시 노원구 노해로 508,37.65470356,127.066191
14382,서울특별시 노원구 동일로 1456,37.66067691,127.0614956
14383,서울특별시 노원구 노원로 532,37.66462073,127.0598242
14384,서울특별시 노원구 한글비석로48길 6,37.66521219,127.0677191
14385,서울특별시 노원구 한글비석로48길 6,37.66521219,127.0677191
14386,서울특별시 노원구 한글비석로 479,37.66449773,127.0644832
14387,서울특별시 노원구 중계로 230,37.65103585,127.075055
14388,서울특별시 노원구 중계로 230,37.65103585,127.075055
14389,서울특별시 노원구 섬밭로 285,37.64088105,127.0625338
14390,서울특별시 은평구 수색로 217,37.57969328,126.8986784
14391,서울특별시 은평구 은평터널로 65,37.58689948,126.8991669
14392,서울특별시 은평구 통일로 660,37.60590087,126.9361429
14393,서울특별시 은평구 불광로 98-8,37.61476323,126.9333135
14394,서울특별시 은평구 연서로 107,37.60899255,126.9155362
14395,서울특별시 은평구 서오릉로 94,37.60952,126.9217002
14396,서울특별시 은평구 응암로 318,37.59946613,126.9219716
14397,서울특별시 은평구 백련산로 37,37.58941333,126.9222745
14398,서울특별시 은평구 은평터널로 121-6,37.59027545,126.9036447
14399,서울특별시 은평구 증산로21길 11,37.59570741,126.913495
14400,서울특별시 은평구 진관4로 87,37.64784198,126.929665
14401,서울특별시 서대문구 충정로7길 30,37.563688,126.9632043
14402,서울특별시 서대문구 경기대로3길 5,37.56193473,126.9614723
14403,서울특별시 서대문구 북아현로1길 17,37.55866771,126.9534505
14404,서울특별시 서대문구 신촌로35길 10,37.5586217,126.9558604
14405,서울특별시 서대문구 신촌로 149,37.55695178,126.9424587
14406,서울특별시 서대문구 연희로26가길 33,37.57443623,126.9367935
14407,서울특별시 서대문구 세검정로1길 95,37.59591997,126.9456918
14408,서울특별시 서대문구 통일로48가길 37,37.59468369,126.9424042
14409,서울특별시 서대문구 홍은중앙로 149,37.60389429,126.947316
14410,서울특별시 서대문구 수색로 100,37.57473348,126.9079161
14411,서울특별시 서대문구 가재울미래로 2,37.57440199,126.9179078
14412,서울특별시 서대문구 가재울미래로 2,37.57440199,126.9179078
14413,서울특별시 서대문구 모래내로 151,37.56990129,126.9178357
14414,서울특별시 서대문구 모래내로 151,37.56990129,126.9178357
14415,서울특별시 마포구 마포대로 195,37.55243392,126.9542238
14416,서울특별시 마포구 마포대로 195,37.55243392,126.9542238
14417,서울특별시 마포구 마포대로11길 50,37.55158802,126.9511914
14418,서울특별시 마포구 마포대로11길 50,37.55158802,126.9511914
14419,서울특별시 마포구 마포대로 115-8,37.54591501,126.9506223
14420,서울특별시 마포구 백범로 205,37.5441056,126.9541301
14421,서울특별시 마포구 만리재로 74,37.54645194,126.9589123
14422,서울특별시 마포구 마포대로 33,37.53998479,126.9454475
14423,서울특별시 서대문구 북아현로1길 50,37.55969,126.9528112
14424,서울특별시 은평구 서오릉로27길 26-2,37.61728069,126.9037053
14425,서울특별시 은평구 백련산로 6,37.58614561,126.9232295
14426,서울특별시 노원구 한글비석로 396,37.66230302,127.0735817
14427,서울특별시 은평구 갈현로33길 24,37.62197042,126.9139717
14428,서울특별시 노원구 동일로227길 86,37.67041003,127.05273
14429,서울특별시 은평구 백련산로 160,37.5983345,126.9259201
14430,서울특별시 노원구 초안산로1길 18,37.62915542,127.0516038
14431,서울특별시 강북구 한천로159길 8,37.64445476,127.0186552
14432,서울특별시 노원구 수락산로 174,37.67044183,127.0597306
14433,서울특별시 노원구 동일로231길 86,37.6717358,127.0498904
14434,서울특별시 서대문구 독립문로14길 33,37.56591992,126.9592895
14435,서울특별시 노원구 마들로 31,37.61872537,127.0670846
14436,서울특별시 노원구 마들로 31,37.61872537,127.0670846
14437,서울특별시 노원구 동일로207길 186,37.63795562,127.0598022
14438,서울특별시 노원구 섬밭로 196,37.63399762,127.0672779
14439,서울특별시 은평구 통일로 630,37.60284497,126.9359558
14440,서울특별시 서대문구 독립문로 10,37.56936251,126.9581956
14441,서울특별시 서대문구 독립문로8길 54,37.56879093,126.9584744
14442,서울특별시 노원구 마들로 31,37.61872537,127.0670846
14443,서울특별시 노원구 동일로245길 162,37.68083846,127.0542199
14444,서울특별시 서대문구 북아현로1길 50,37.55969,126.9528112
14445,서울특별시 마포구 백범로 199,37.54352977,126.952771
14446,서울특별시 노원구 노원로28길 15,37.65400888,127.0692161
14447,서울특별시 마포구 백범로 199,37.54352977,126.952771
14448,서울특별시 노원구 동일로 1456,37.66067691,127.0614956
14449,서울특별시 노원구 상계로1길 92,37.65993024,127.0620579
14450,서울특별시 노원구 한글비석로 396,37.66230302,127.0735817
14451,서울특별시 노원구 덕릉로 780,37.66669198,127.079126
14452,서울특별시 은평구 통일로 780,37.61586219,126.9284327
14453,서울특별시 서대문구 통일로 348,37.58126155,126.9528345
14454,서울특별시 노원구 노원로28길 62,37.65461428,127.0712845
14455,서울특별시 은평구 갈현로7길 56,37.6051608,126.9042981
14456,서울특별시 노원구 마들로 31,37.61872537,127.0670846
14457,서울특별시 노원구 덕릉로112길 24,37.66595614,127.0800797
14458,서울특별시 노원구 동일로228길 23,37.66986967,127.0587381
14459,서울특별시 마포구 백범로 152,37.54474774,126.9482582
14460,서울특별시 노원구 노원로 564,37.66165211,127.0561247
14461,서울특별시 은평구 불광로 208,37.62570254,126.9293893
14462,서울특별시 은평구 불광로 122-10,37.61827037,126.9341808
14463,서울특별시 노원구 중계로 233,37.64989957,127.0757054
14464,서울특별시 노원구 노원로28길 15,37.65400888,127.0692161
14465,서울특별시 노원구 덕릉로118길 29,37.6681982,127.0811755
14466,서울특별시 마포구 삼개로 38,37.53666293,126.9471125
14467,서울특별시 마포구 새창로 52,37.5399016,126.9557382
14468,서울특별시 마포구 새창로 52,37.5399016,126.9557382
14469,서울특별시 마포구 마포대로 33,37.53998479,126.9454475
14470,서울특별시 서대문구 가재울미래로 2,37.57440199,126.9179078
14471,서울특별시 노원구 동일로227길 86,37.67041003,127.05273
14472,서울특별시 노원구 동일로215길 23,37.6504273,127.059109
14473,서울특별시 서대문구 가재울미래로 2,37.57440199,126.9179078
14474,서울특별시 은평구 연서로46길 7,37.63396525,126.9326829
14475,서울특별시 은평구 진관4로 37,37.64446939,126.925074
14476,서울특별시 마포구 마포대로 201,37.5522161,126.9555037
14477,서울특별시 노원구 노해로 508,37.65470356,127.066191
14478,서울특별시 도봉구 시루봉로 107,37.66121703,127.0261502
14479,서울특별시 도봉구 방학로15길 40,37.65860084,127.0240426
14480,서울특별시 노원구 노해로 508,37.65470356,127.066191
14481,서울특별시 노원구 노해로 508,37.65470356,127.066191
14482,서울특별시 노원구 한글비석로5길 62,37.64637161,127.0749598
14483,서울특별시 노원구 덕릉로79길 23,37.65611109,127.072595
14484,서울특별시 노원구 덕릉로71길 30,37.6508593,127.0696948
14485,서울특별시 노원구 중계로16나길 11,37.65230563,127.0821915
14486,서울특별시 노원구 노원로 564,37.66165211,127.0561247
14487,서울특별시 도봉구 마들로 735-8,37.6761802,127.0478175
14488,서울특별시 노원구 상계로5길 12,37.65735433,127.0642643
14489,서울특별시 노원구 공릉로 126,37.62131223,127.0795044
14490,서울특별시 노원구 공릉로46길 32,37.6263561,127.0821837
14491,서울특별시 노원구 공릉로46길 19,37.6279055,127.0801308
14492,서울특별시 노원구 노원로 62,37.62769787,127.0872999
14493,서울특별시 노원구 동일로193길 7,37.62566341,127.0719953
14494,서울특별시 노원구 한글비석로 479,37.66449773,127.0644832
14495,서울특별시 서대문구 신촌로35길 10,37.5586217,126.9558604
14496,서울특별시 도봉구 마들로 859-19,37.68604183,127.0467647
14497,서울특별시 도봉구 우이천로 328,37.64687853,127.0288178
14498,서울특별시 은평구 가좌로 344,37.59791864,126.9074653
14499,서울특별시 은평구 가좌로 334,37.59812253,126.9087295
14500,서울특별시 노원구 동일로215길 48,37.65082219,127.0561606
14501,서울특별시 도봉구 해등로16길 12,37.65623484,127.0405729
14502,서울특별시 도봉구 마들로 551,37.65946197,127.0480359
14503,서울특별시 도봉구 도봉로136길 28,37.65657114,127.042729
14504,서울특별시 서대문구 통일로34길 43,37.58833366,126.9488077
14505,서울특별시 서대문구 통일로34길 43,37.58833366,126.9488077
14506,서울특별시 서대문구 통일로 348,37.58126155,126.9528345
14507,서울특별시 서대문구 수색로 100,37.57473348,126.9079161
14508,서울특별시 도봉구 해등로 242-12,37.65866831,127.0307242
14509,서울특별시 도봉구 해등로 195,37.65783785,127.0337873
14510,서울특별시 도봉구 마들로 859-19,37.68604183,127.0467647
14511,서울특별시 은평구 은평터널로 65,37.58689948,126.8991669
14512,서울특별시 서대문구 수색로 100,37.57473348,126.9079161
14513,서울특별시 서대문구 가재울미래로 2,37.57440199,126.9179078
14514,서울특별시 은평구 진흥로9길 2,37.60555691,126.9219777
14515,서울특별시 은평구 진흥로1라길 12,37.60497125,126.9170593
14516,서울특별시 양천구 남부순환로 569,37.51812772,126.8395142
14517,서울특별시 양천구 중앙로29길 55,37.51713502,126.8474188
14518,서울특별시 구로구 신도림로 32,37.50737921,126.8807619
14519,서울특별시 구로구 경인로65길 16-15,37.50935488,126.8865614
14520,서울특별시 양천구 오목로29길 25-1,37.52692588,126.8534167
14521,서울특별시 강서구 허준로 121,37.56709401,126.8547358
14522,서울특별시 양천구 지양로15길 24,37.52251991,126.8289688
14523,서울특별시 마포구 양화로 45,37.5515008,126.9139502
14524,서울특별시 마포구 양화로 45,37.5515008,126.9139502
14525,서울특별시 마포구 월드컵로10길 50,37.55534017,126.9144983
14526,서울특별시 마포구 월드컵로29길 14,37.56019567,126.905206
14527,서울특별시 영등포구 여의대방로 25,37.49471168,126.9089784
14528,서울특별시 강서구 수명로1길 16,37.55204782,126.8225609
14529,서울특별시 강서구 강서로 348,37.55707841,126.8380811
14530,서울특별시 금천구 디지털로12길 15,37.47816855,126.8898396
14531,서울특별시 강서구 공항대로 382,37.55639458,126.8495467
14532,서울특별시 강서구 우현로 67,37.54754619,126.8372075
14533,서울특별시 영등포구 도영로 66,37.51039494,126.9001766
14534,서울특별시 구로구 개봉로20길 6,37.49288023,126.8593081
14535,서울특별시 구로구 개봉로2길 133-15,37.48950363,126.8600708
14536,서울특별시 양천구 목동서로 340,37.51942468,126.8640382
14537,서울특별시 마포구 토정로 167,37.5464776,126.9289071
14538,서울특별시 금천구 가산로 99,37.47615677,126.8912894
14539,서울특별시 금천구 가산로 106,37.47544481,126.8936809
14540,서울특별시 마포구 숭문길 106,37.55092488,126.9467959
14541,서울특별시 양천구 목동서로 280,37.52234027,126.8675633
14542,서울특별시 양천구 목동동로 130,37.514999,126.8712369
14543,서울특별시 마포구 월드컵로 338,37.57277235,126.8900873
14544,서울특별시 강서구 강서로 348,37.55707841,126.8380811
14545,서울특별시 양천구 목동동로 130,37.514999,126.8712369
14546,서울특별시 양천구 목동동로 130,37.514999,126.8712369
14547,서울특별시 영등포구 국회대로37길 22,37.52800989,126.9018778
14548,서울특별시 영등포구 당산로42길 16,37.53059009,126.899629
14549,서울특별시 양천구 목동중앙북로 38,37.54790385,126.8669548
14550,서울특별시 양천구 목동중앙북로 38,37.54790385,126.8669548
14551,서울특별시 양천구 목동중앙북로 126,37.54625413,126.8771125
14552,서울특별시 마포구 월드컵로 338,37.57277235,126.8900873
14553,서울특별시 마포구 상암산로1길 92,37.58275639,126.8820988
14554,서울특별시 마포구 독막로 266,37.54386754,126.9423896
14555,서울특별시 강서구 강서로56나길 37,37.56108007,126.8408477
14556,서울특별시 양천구 목동남로4길 81,37.51004896,126.8678756
14557,서울특별시 양천구 신목로 9,37.51674726,126.8757296
14558,서울특별시 영등포구 여의동로3길 10,37.51811729,126.925196
14559,서울특별시 영등포구 여의나루로 12,37.51966965,126.9216224
14560,서울특별시 영등포구 여의동로 213,37.51859533,126.9396296
14561,서울특별시 영등포구 여의동로 213,37.51859533,126.9396296
14562,서울특별시 영등포구 국제금융로7가길 21,37.52186242,126.9351413
14563,서울특별시 강서구 공항대로59길 64,37.55462322,126.8641847
14564,서울특별시 영등포구 도림로 365,37.50889052,126.8986718
14565,서울특별시 마포구 독막로42길 2,37.5436033,126.9458539
14566,서울특별시 영등포구 도림로145길 28,37.51425759,126.888635
14567,서울특별시 양천구 신정로 170,37.50864654,126.8423769
14568,서울특별시 양천구 목동동로12길 60,37.52213326,126.8777896
14569,서울특별시 양천구 목동동로 100,37.51498201,126.8651323
14570,서울특별시 양천구 목동동로12길 60,37.52213326,126.8777896
14571,서울특별시 영등포구 선유동2로 29,37.53243219,126.8958797
14572,서울특별시 양천구 목동서로2길 22,37.54162782,126.8826427
14573,서울특별시 양천구 목동서로 130,37.53151635,126.8709047
14574,서울특별시 양천구 목동서로 38,37.54129134,126.8785038
14575,서울특별시 양천구 오목로52길 19-1,37.52474767,126.8675718
14576,서울특별시 구로구 경인로 638,37.50668795,126.886233
14577,서울특별시 강서구 강서로17가길 46,37.53646677,126.8435292
14578,서울특별시 구로구 신도림로 16,37.50512282,126.882191
14579,서울특별시 구로구 신도림로 87,37.51096038,126.8822391
14580,서울특별시 구로구 경인로 643,37.50884988,126.8855536
14581,서울특별시 구로구 경인로 643,37.50884988,126.8855536
14582,서울특별시 금천구 한내로 69-54,37.46021679,126.8858148
14583,서울특별시 양천구 목동남로4길 20,37.50832336,126.8654083
14584,서울특별시 금천구 벚꽃로 73,37.46291004,126.8904233
14585,서울특별시 금천구 시흥대로152길 25,37.47726752,126.9000454
14586,서울특별시 구로구 구일로4길 22,37.49116709,126.8756454
14587,서울특별시 양천구 신목로5길 9,37.51788232,126.8736759
14588,서울특별시 마포구 신수로 15,37.54342188,126.9329485
14589,서울특별시 마포구 월드컵북로 235,37.56970041,126.9014174
14590,서울특별시 마포구 모래내로3길 4,37.56482543,126.9057635
14591,서울특별시 마포구 성산로4길 75,37.56454801,126.9102689
14592,서울특별시 구로구 디지털로31길 85,37.48589832,126.890629
14593,서울특별시 구로구 구로중앙로18길 68,37.49689827,126.892606
14594,서울특별시 영등포구 영등포로 106,37.52088603,126.8928591
14595,서울특별시 구로구 서해안로34가길 18,37.49379081,126.8481845
14596,서울특별시 구로구 오류로 65,37.49064484,126.8401133
14597,서울특별시 구로구 경인로2길 42,37.48884208,126.826375
14598,서울특별시 구로구 구일로8길 31,37.49517251,126.8726762
14599,서울특별시 구로구 디지털로32길 92,37.48268408,126.8999025
14600,서울특별시 영등포구 당산로 214,37.53293123,126.902834
14601,서울특별시 영등포구 당산로 214,37.53293123,126.902834
14602,서울특별시 영등포구 당산로 95,37.52402305,126.894863
14603,서울특별시 구로구 도림로 59,37.4898994,126.8889619
14604,서울특별시 양천구 목동남로4길 6-23,37.50760051,126.8651091
14605,서울특별시 강서구 수명로1길 16,37.55204782,126.8225609
14606,서울특별시 강서구 공항대로75길 17,37.54841126,126.8728997
14607,서울특별시 강서구 양천로71길 54,37.55330282,126.8729409
14608,서울특별시 강서구 양천로69길 65,37.55595658,126.8721543
14609,서울특별시 강서구 양천로63길 52,37.55792149,126.8661533
14610,서울특별시 강서구 양천로 731,37.55025171,126.8773969
14611,서울특별시 구로구 부일로9길 127,37.49760176,126.8205929
14612,서울특별시 구로구 도림로 59,37.4898994,126.8889619
14613,서울특별시 금천구 시흥대로 165,37.44790332,126.9007227
14614,서울특별시 금천구 금하로 816,37.44977863,126.9200208
14615,서울특별시 금천구 금하로 816,37.44977863,126.9200208
14616,서울특별시 구로구 고척로52길 53,37.50349452,126.8566024
14617,서울특별시 영등포구 당산로42길 7,37.53066658,126.9003635
14618,서울특별시 강서구 양천로 140,37.57309837,126.8189734
14619,서울특별시 강서구 마곡서로 133,37.5645561,126.8238387
14620,서울특별시 강서구 마곡서로 133,37.5645561,126.8238387
14621,서울특별시 강서구 마곡서로 133,37.5645561,126.8238387
14622,서울특별시 강서구 마곡서1로 100,37.5657541,126.8196234
14623,서울특별시 구로구 신도림로19길 16,37.51158208,126.8846169
14624,서울특별시 강서구 양천로28길 29,37.57214187,126.82104
14625,서울특별시 마포구 망원로11길 73,37.56042373,126.9047835
14626,서울특별시 송파구 위례광장로 163,37.4796684,127.1393228
14627,서울특별시 송파구 오금로54길 10,37.49361483,127.1410684
14628,서울특별시 송파구 양산로4길 8,37.48956298,127.1432578
14629,서울특별시 강동구 고덕로 131,37.55516675,127.1438388
14630,서울특별시 강동구 양재대로96길 79,37.52904287,127.1414901
14631,서울특별시 강동구 상암로 11,37.55344749,127.12566
14632,서울특별시 강동구 천호대로 1089,37.53660488,127.1331156
14633,서울특별시 강동구 고덕로 240,37.55382442,127.151914
14634,서울특별시 강동구 성안로 170,37.53804178,127.1360493
14635,서울특별시 강동구 천호대로 1239,37.53786128,127.148277
14636,서울특별시 송파구 위례광장로 170,37.47989602,127.1423248
14637,서울특별시 송파구 위례광장로 230,37.47861981,127.1435334
14638,서울특별시 강동구 천중로17길 42-10,37.54637049,127.1314679
14639,서울특별시 강동구 진황도로 47-2,37.53855616,127.1329657
14640,서울특별시 강동구 진황도로 18,,
14641,서울특별시 강동구 고덕로 130,37.55420667,127.1409011
14642,서울특별시 강동구 고덕로 131,37.55516675,127.1438388
14643,서울특별시 강동구 고덕로 131,37.55516675,127.1438388
14644,서울특별시 송파구 송파대로 111,37.47968706,127.1249798
14645,서울특별시 강동구 천호대로 1077,37.53725665,127.1314376
14646,서울특별시 강동구 올림픽로89길 39-4,37.5476333,127.1233961
14647,서울특별시 송파구 동남로23가길 34,37.50174295,127.1318943
14648,서울특별시 강동구 천호대로 1240,37.53591594,127.1479832
14649,서울특별시 강동구 천호대로193길 37,37.53753608,127.1435606
14650,서울특별시 강동구 진황도로 85,37.5366246,127.136133
14651,서울특별시 강동구 풍성로65길 29,37.5295114,127.1395864
14652,서울특별시 강동구 상암로23길 28,37.54832032,127.1349973
14653,서울특별시 강동구 상암로51길 61,37.5486615,127.1461524
14654,서울특별시 강동구 아리수로50길 50,37.55768646,127.1485777
14655,서울특별시 강동구 고덕로61길 37,37.55675612,127.1519579
14656,서울특별시 강동구 양재대로 1706,37.55795484,127.1462943
14657,서울특별시 성북구 길음로 74,37.60928966,127.0210339
14658,서울특별시 중랑구 용마산로 616,37.60493329,127.1012262
14659,서울특별시 중랑구 공릉로2라길 4,37.61313996,127.0816751
14660,서울특별시 광진구 아차산로 262,37.53700164,127.0729628
14661,서울특별시 동대문구 천호대로 385,37.56230355,127.0619458
14662,서울특별시 중구 동호로10길 30,37.5551916,127.0163594
14663,서울특별시 중구 동호로10길 30,37.5551916,127.0163594
14664,서울특별시 중구 다산로 32,37.54715055,127.0057062
14665,서울특별시 성동구 둘레길 21,37.53766269,127.0466506
14666,서울특별시 성동구 상원길 76,37.55085999,127.0484249
14667,서울특별시 성동구 상원길 63,37.5501345,127.047109
14668,서울특별시 성동구 뚝섬로3길 6,37.54057565,127.0503122
14669,서울특별시 강북구 오패산로30길 30,37.61635558,127.0356712
14670,서울특별시 성동구 마장로42길 16,37.56504066,127.0460385
14671,서울특별시 용산구 서빙고로 67,37.52486281,126.9704127
14672,서울특별시 성북구 삼선교로16길 35,37.58801843,127.0121412
14673,서울특별시 성북구 길음로9길 40,37.60584942,127.0209852
14674,서울특별시 성북구 길음로 33,37.60508329,127.0220786
14675,서울특별시 동대문구 정릉천동로 16,37.57346786,127.0353065
14676,서울특별시 중랑구 동일로 752,37.59700909,127.0820707
14677,서울특별시 중랑구 동일로129길 35,37.59922257,127.0775053
14678,서울특별시 동대문구 전농로10길 20,37.57460947,127.0601291
14679,서울특별시 중랑구 봉화산로 193,37.60683224,127.0944572
14680,서울특별시 종로구 통일로18길 9,37.57767072,126.9553549
14681,서울특별시 동대문구 사가정로 148,37.57665904,127.0615677
14682,서울특별시 중구 소공로 35,37.55822471,126.9817445
14683,서울특별시 성동구 무학봉길 35,37.56060557,127.0268748
14684,서울특별시 성동구 왕십리로 410,37.56660293,127.0240825
14685,서울특별시 성동구 왕십리로31나길 22,37.56238971,127.0284837
14686,서울특별시 성동구 왕십리로31나길 22,37.56238971,127.0284837
14687,서울특별시 성동구 난계로 84,37.55913142,127.0240799
14688,서울특별시 광진구 뚝섬로 569,37.53435114,127.0735775
14689,서울특별시 광진구 뚝섬로52마길 56,37.52809073,127.081383
14690,서울특별시 광진구 뚝섬로31길 20,37.53600541,127.0681185
14691,서울특별시 동대문구 답십리로56길 21,37.57006932,127.0598603
14692,서울특별시 동대문구 장한로 105,37.5700853,127.069955
14693,서울특별시 성동구 금호로 100,37.55453147,127.0261866
14694,서울특별시 동대문구 장안벚꽃로 167,37.5750721,127.0742821
14695,서울특별시 동대문구 한천로 248,37.58323604,127.071898
14696,서울특별시 성북구 화랑로 299,37.6136536,127.0608101
14697,서울특별시 용산구 한강대로 205,37.53668353,126.9728087
14698,서울특별시 성동구 성수이로 137,37.54792511,127.0564731
14699,서울특별시 동대문구 약령시로 154,37.58304395,127.0470264
14700,서울특별시 광진구 아차산로 549,37.54335816,127.1017442
14701,서울특별시 성북구 북악산로29길 67,37.59503244,127.0336436
14702,서울특별시 용산구 신흥로2길 58,37.54237928,126.9879185
14703,서울특별시 성북구 종암로25길 30,37.60149226,127.0310804
14704,서울특별시 성동구 고산자로 164,37.55506876,127.0354241
14705,서울특별시 성동구 행당로 82,37.55480888,127.0273997
14706,서울특별시 성동구 행당로 79,37.55820535,127.027507
14707,서울특별시 중랑구 용마산로 252,37.575176,127.0892225
14708,서울특별시 종로구 동망산길 47,37.58155743,127.0157383
14709,서울특별시 성북구 정릉로26길 8,37.60386708,127.0108477
14710,서울특별시 성북구 정릉로 307,37.60322851,127.0178662
14711,서울특별시 중랑구 용마산로 252,37.575176,127.0892225
14712,서울특별시 성북구 성북로4길 52,37.59447253,127.012706
14713,서울특별시 동대문구 정릉천동로 36,37.57547229,127.0371123
14714,서울특별시 성북구 동소문로34길 24,37.59899275,127.0231395
14715,서울특별시 성북구 보문로29다길 31,37.58417735,127.0126186
14716,서울특별시 중랑구 면목로 491,37.59581313,127.0853434
14717,서울특별시 동대문구 한천로63길 10,37.6049031,127.0637064
14718,서울특별시 성북구 월곡로14길 26,37.60023402,127.0426519
14719,서울특별시 성북구 오패산로16가길 40,37.60990552,127.0386975
14720,서울특별시 성동구 행당로 79,37.55820535,127.027507
14721,서울특별시 동대문구 한천로58길 47,37.60075075,127.0687695
14722,서울특별시 동대문구 한천로58길 47,37.60075075,127.0687695
14723,서울특별시 성북구 보국문로 116,37.61514195,127.0077019
14724,서울특별시 동대문구 신이문로 9,37.60316294,127.0633541
14725,서울특별시 동대문구 왕산로23길 89,37.58267031,127.0348095
14726,서울특별시 성동구 금호로 173,37.55627884,127.0181523
14727,서울특별시 성동구 금호로 107,37.55227227,127.0242376
14728,서울특별시 용산구 서빙고로51길 68-14,37.52275034,126.9921627
14729,서울특별시 용산구 한강대로 205,37.53668353,126.9728087
14730,서울특별시 동대문구 사가정로 190,37.57734724,127.064387
14731,서울특별시 성북구 돌곶이로8길 22,37.60652448,127.0622612
14732,서울특별시 용산구 원효로 216,37.53672336,126.9665272
14733,서울특별시 용산구 효창원로 17,37.53443266,126.9501826
14734,서울특별시 성북구 안암로9나길 14,37.58227743,127.0246218
14735,서울특별시 용산구 원효로 40,37.53391601,126.9493026
14736,서울특별시 중구 청계천로 400,37.57081055,127.0214639
14737,서울특별시 성동구 마조로 57,37.56298737,127.0398903
14738,서울특별시 성동구 살곶이길 50,37.5696275,127.041524
14739,서울특별시 광진구 광나루로 545,37.54625932,127.0899431
14740,서울특별시 성동구 매봉길 50,37.54729891,127.0121894
14741,서울특별시 중구 청계천로 400,37.57081055,127.0214639
14742,서울특별시 중구 퇴계로90길 74,37.56103798,127.0209858
14743,서울특별시 관악구 관악로 304,37.49205057,126.957711
14744,서울특별시 송파구 올림픽로4길 15,37.50867434,127.0747773
14745,서울특별시 강남구 언주로30길 21,37.48886577,127.0520146
14746,서울특별시 강남구 남부순환로373길 23,37.48786402,127.043825
14747,서울특별시 강남구 언주로30길 13,37.48812761,127.0506867
14748,서울특별시 관악구 난곡로 167,37.46937129,126.9186488
14749,서울특별시 서초구 태봉로2길 65,37.46412574,127.0257879
14750,서울특별시 송파구 올림픽로 135,37.51673328,127.0898891
14751,서울특별시 송파구 올림픽로 99,37.51512525,127.07813
14752,서울특별시 관악구 은천로 86,37.48554817,126.9444248
14753,서울특별시 서초구 명달로11길 29-3,37.48296036,127.0026083
14754,서울특별시 서초구 서초중앙로 26,37.48468721,127.0169918
14755,서울특별시 서초구 서초중앙로 26,37.48468721,127.0169918
14756,서울특별시 관악구 호암로 519,37.46417716,126.9313185
14757,서울특별시 관악구 조원로2길 13,37.48278923,126.9029192
14758,서울특별시 관악구 호암로 399,37.46137146,126.925455
14759,서울특별시 관악구 관악로30길 12,37.48413576,126.9606073
14760,서울특별시 서초구 신반포로33길 66,37.51440937,127.0081356
14761,서울특별시 서초구 신반포로33길 66,37.51440937,127.0081356
14762,서울특별시 서초구 신반포로23길 41,37.51165835,127.0044694
14763,서울특별시 서초구 잠원로 166-4,37.51730271,127.0110745
14764,서울특별시 관악구 관악로 304,37.49205057,126.957711
14765,서울특별시 동작구 사당로20나길 57,37.48157374,126.9739409
14766,서울특별시 동작구 동작대로29길 91,37.48802893,126.9765166
14767,서울특별시 동작구 동작대로29길 110,37.48982442,126.9777452
14768,서울특별시 서초구 서초중앙로 188,37.49735041,127.013538
14769,서울특별시 강남구 테헤란로10길 10,37.49840177,127.0322639
14770,서울특별시 강남구 테헤란로48길 10,37.50265245,127.0458729
14771,서울특별시 서초구 헌릉로8길 22,37.45526904,127.0591797
14772,서울특별시 동작구 장승배기로4길 9,37.5014493,126.9438142
14773,서울특별시 동작구 장승배기로4길 9,37.5014493,126.9438142
14774,서울특별시 동작구 상도로 346-1,37.49678998,126.9516675
14775,서울특별시 동작구 상도로15길 131,37.5049676,126.9379704
14776,서울특별시 서초구 효령로45길 7,37.48400966,127.0085496
14777,서울특별시 서초구 반포대로7길 45,37.48186186,127.0094789
14778,서울특별시 서초구 효령로46길 21,37.48272446,127.0097942
14779,서울특별시 동작구 만양로 26,37.50762648,126.9495479
14780,서울특별시 송파구 오금로 396,37.49795593,127.1342151
14781,서울특별시 동작구 노량진로23가길 23,37.51330347,126.9517825
14782,서울특별시 동작구 만양로 84,37.51136715,126.9452257
14783,서울특별시 강남구 학동로64길 7,37.51764786,127.0454388
14784,서울특별시 동작구 동작대로39가길 55,37.49351407,126.9788425
14785,서울특별시 동작구 동작대로29길 119,37.49088863,126.9760567
14786,서울특별시 영등포구 시흥대로187길 12,37.49305467,126.9082096
14787,서울특별시 영등포구 도신로4길 6,37.50264351,126.894276
14788,서울특별시 영등포구 도림천로 431,37.48767567,126.8996873
14789,서울특별시 영등포구 도림천로19길 11,37.48658697,126.9002077
14790,서울특별시 영등포구 도신로 31,37.50623471,126.8951535
14791,서울특별시 영등포구 도신로 31,37.50623471,126.8951535
14792,서울특별시 영등포구 도신로 31,37.50623471,126.8951535
14793,서울특별시 강남구 삼성로111길 8,37.51473151,127.0517391
14794,서울특별시 강남구 영동대로 640,37.51839825,127.0595493
14795,서울특별시 강남구 개포로109길 9,37.49575182,127.0751013
14796,서울특별시 강남구 개포로 310,37.48028672,127.0578478
14797,서울특별시 강남구 언주로 103,37.48134384,127.0529118
14798,서울특별시 서초구 남부순환로309길 67,37.48053241,127.0026319
14799,서울특별시 송파구 송파대로37길 29,37.50040067,127.1085698
14800,서울특별시 송파구 문정로 125,37.49237912,127.1340033
14801,서울특별시 서초구 주흥길 44-6,37.50646094,127.0203828
14802,서울특별시 서초구 고무래로 35,37.50446749,127.0124545
14803,서울특별시 송파구 동남로 193,37.49469823,127.1292231
14804,서울특별시 송파구 동남로 193,37.49469823,127.1292231
14805,서울특별시 송파구 동남로11길 4,37.49391892,127.1280119
14806,서울특별시 송파구 송파대로32길 33,37.49833241,127.1163372
14807,서울특별시 송파구 동남로14길 17-25,37.49301156,127.132225
14808,서울특별시 서초구 서초대로1길 30,37.48923288,126.9836143
14809,서울특별시 서초구 강남대로61길 23,37.49821536,127.0243472
14810,서울특별시 송파구 올림픽로35가길 11,37.5163298,127.1040605
14811,서울특별시 송파구 올림픽로 435,37.5213593,127.1049717
14812,서울특별시 송파구 올림픽로 435,37.5213593,127.1049717
14813,서울특별시 송파구 올림픽로 435,37.5213593,127.1049717
14814,서울특별시 동작구 상도로 421,37.49271686,126.9582187
14815,서울특별시 동작구 상도로 421,37.49271686,126.9582187
14816,서울특별시 동작구 등용로 37,37.50523976,126.9331339
14817,서울특별시 서초구 방배로19길 67,37.48327609,126.991927
14818,서울특별시 관악구 관악로30길 27,37.48896635,126.9606433
14819,서울특별시 강남구 압구정로 113,37.5244043,127.0184456
14820,서울특별시 동작구 여의대방로 28,37.49527344,126.9116905
14821,서울특별시 동작구 여의대방로 28,37.49527344,126.9116905
14822,서울특별시 동작구 여의대방로10길 14,37.49632776,126.9139635
14823,서울특별시 송파구 풍성로14길 19,37.53262359,127.1164366
14824,서울특별시 송파구 풍성로24길 42,37.53162995,127.116727
14825,서울특별시 송파구 잠실로 88,37.50753416,127.0932143
14826,서울특별시 송파구 잠실로 62,37.50801505,127.0902835
14827,서울특별시 동작구 상도로 407,37.49391739,126.9577733
14828,서울특별시 동작구 여의대방로44길 10,37.50736122,126.9260908
14829,서울특별시 송파구 송파대로 567,37.51313818,127.0930487
14830,서울특별시 강남구 강남대로146길 28,37.5150255,127.0230305
14831,서울특별시 강남구 자곡로 21,37.46734665,127.0932645
14832,서울특별시 관악구 봉천로 387,37.48376028,126.9427012
14833,서울특별시 송파구 송파대로 567,37.51313818,127.0930487
14834,서울특별시 관악구 남부순환로 1430,37.47923845,126.90904
14835,서울특별시 강남구 언주로30길 13,37.48812761,127.0506867
14836,서울특별시 동작구 서달로 91,37.50316562,126.958891
14837,서울특별시 동작구 상도로 346-2,37.49475271,126.9482708
14838,서울특별시 서초구 신반포로15길 19,37.506252,126.9926731
14839,서울특별시 강남구 봉은사로57길 37,37.51314249,127.0442362
14840,서울특별시 서초구 신반포로 270,37.50786022,127.011582
14841,서울특별시 동작구 서달로1길 17,37.50073517,126.9586697
14842,서울특별시 동작구 서달로 91,37.50316562,126.958891
14843,서울특별시 동작구 사당로2가길 102,37.48837303,126.9634174
14844,서울특별시 동작구 사당로2가길 102,37.48837303,126.9634174
14845,서울특별시 영등포구 도림로 187,37.49556574,126.9005922
14846,서울특별시 관악구 은천로 93,37.48735272,126.9454289
14847,서울특별시 서초구 방배로 278,37.49734456,126.9881176
14848,서울특별시 동작구 흑석한강로 12,37.50517984,126.9645125
14849,서울특별시 강남구 자곡로 101,37.47265508,127.0958055
14850,서울특별시 동작구 여의대방로10길 14,37.49632776,126.9139635
14851,서울특별시 동작구 상도로34길 42,37.50301195,126.944659
14852,서울특별시 동작구 상도로 346-1,37.49678998,126.9516675
14853,서울특별시 동작구 동작대로29길 119,37.49088863,126.9760567
14854,서울특별시 서초구 반포대로 122,37.49109086,127.0085598
14855,서울특별시 강남구 삼성로64길 5,37.5004475,127.0605138
14856,서울특별시 서초구 서초대로1길 30,37.48923288,126.9836143
14857,서울특별시 서초구 방배로2길 24-6,37.47590348,127.0024681
14858,서울특별시 송파구 오금로32길 14,37.50525374,127.1178045
14859,서울특별시 강남구 개포로 307,37.48463106,127.056092
14860,서울특별시 관악구 관악로 195,37.48256382,126.9530987
14861,서울특별시 관악구 남부순환로 1777-7,37.48238628,126.9476252
14862,서울특별시 송파구 올림픽로35가길 10,37.51694013,127.102633
14863,서울특별시 서초구 논현로1길 49,37.47068805,127.0491626
14864,서울특별시 송파구 올림픽로 435,37.5213593,127.1049717
14865,서울특별시 강남구 개포로110길 50,37.48954101,127.0796242
14866,서울특별시 동작구 서달로1길 17,37.50073517,126.9586697
14867,서울특별시 송파구 양재대로 1218,37.51669099,127.1377124
14868,서울특별시 강동구 천호대로 1240,37.53591594,127.1479832
14869,서울특별시 강동구 구천면로 557,37.55112552,127.1596713
14870,서울특별시 강동구 아리수로50길 50,37.55768646,127.1485777
14871,서울특별시 강동구 천호대로 1092,37.53524776,127.1326638
14872,서울특별시 강동구 천호옛12길 27,37.53515427,127.1271458
14873,서울특별시 강동구 천호옛12길 27,37.53515427,127.1271458
14874,서울특별시 강동구 고덕로 427,37.55879729,127.1731822
14875,서울특별시 강동구 동남로49길 60-5,37.53303819,127.1461367
14876,서울특별시 도봉구 도봉로136길 28,37.65657114,127.042729
14877,서울특별시 은평구 서오릉로21길 20,37.61467536,126.9068001
14878,서울특별시 도봉구 해등로 50,37.64999808,127.0433017
14879,서울특별시 서대문구 통일로 510,37.59457019,126.9411674
14880,서울특별시 강북구 삼양로149길 45,37.65476106,127.0112038
14881,서울특별시 서대문구 독립문로 10,37.56936251,126.9581956
14882,서울특별시 은평구 연서로46길 7,37.63396525,126.9326829
14883,서울특별시 은평구 연서로 455,37.63739537,126.933915
14884,서울특별시 서대문구 모래내로 151,37.56990129,126.9178357
14885,서울특별시 노원구 동일로214길 21,37.65043289,127.0627594
14886,서울특별시 마포구 마포대로 262,37.55657892,126.959278
14887,서울특별시 은평구 백련산로2길 19,37.59247684,126.9252695
14888,서울특별시 마포구 도화길 28,37.53960372,126.9496292
14889,서울특별시 서대문구 증가로 150,37.57805476,126.9210192
14890,서울특별시 서대문구 가재울로 45,37.57566143,126.9208517
14891,서울특별시 서대문구 통일로 348,37.58126155,126.9528345
14892,서울특별시 은평구 갈현로29길 61,37.62302174,126.910403
14893,서울특별시 은평구 은평로8길 39,37.5969176,126.9190515
14894,서울특별시 은평구 백련산로 6,37.58614561,126.9232295
14895,서울특별시 은평구 통일로 610,37.60198245,126.9359478
14896,서울특별시 도봉구 해등로 50,37.64999808,127.0433017
14897,서울특별시 구로구 부일로9길 127,37.49760176,126.8205929
14898,서울특별시 영등포구 신풍로 77,37.50041961,126.9115445
14899,서울특별시 금천구 시흥대로128길 19,37.47053935,126.899552
14900,서울특별시 마포구 큰우물로 28,37.54387896,126.9415929
14901,서울특별시 구로구 새말로 93,37.50623441,126.8891034
14902,서울특별시 구로구 중앙로12길 12,37.50495917,126.8618782
14903,서울특별시 구로구 고척로52길 48,37.50341229,126.8552202
14904,서울특별시 강서구 양천로28길 29,37.57214187,126.82104
14905,서울특별시 양천구 중앙로29길 61,37.51954197,126.848125
14906,서울특별시 양천구 오목로7길 25,37.52408568,126.8410408
14907,서울특별시 마포구 독막로20나길 21,37.54686782,126.9269792
14908,서울특별시 강서구 등촌로 137,37.54189832,126.8626189
14909,서울특별시 강서구 방화대로48길 40,37.57425563,126.8201679
14910,서울특별시 양천구 목동동로10길 16-6,37.51757078,126.8712779
14911,서울특별시 양천구 목동서로 400,37.51500787,126.8578385
14912,서울특별시 양천구 목동동로 100,37.51498201,126.8651323
14913,서울특별시 양천구 목동남로4길 6-23,37.50760051,126.8651091
14914,서울특별시 양천구 목동남로4길 6-23,37.50760051,126.8651091
14915,서울특별시 양천구 신정로 300,37.51302738,126.8546564
14916,서울특별시 양천구 신목로 16,37.51806478,126.8759765
14917,서울특별시 영등포구 영중로 154,37.53118834,126.9060668
14918,서울특별시 강서구 양천로 613,37.55526678,126.8663765
14919,서울특별시 강서구 양천로73길 24,37.55161486,126.8733343
14920,서울특별시 강서구 양천로69길 58,37.55527197,126.8729604
14921,서울특별시 마포구 신수로 15,37.54342188,126.9329485
14922,서울특별시 마포구 토정로18길 11,37.54384804,126.9348545
14923,서울특별시 구로구 경인로8길 75,37.4928695,126.8395728
14924,서울특별시 마포구 독막로 266,37.54386754,126.9423896
14925,서울특별시 마포구 상암산로1길 24,37.57766721,126.8893417
14926,서울특별시 강서구 허준로 47,37.57101357,126.8465852
14927,서울특별시 강서구 양천로55길 55,37.56632848,126.8481832
14928,서울특별시 구로구 개봉로20길 158,37.49204228,126.8607374
14929,서울특별시 구로구 개봉로20길 6,37.49288023,126.8593081
14930,서울특별시 구로구 남부순환로95길 54,37.49503483,126.8547106
14931,서울특별시 구로구 남부순환로95길 88,37.49532522,126.8517306
14932,서울특별시 금천구 탑골로 84,37.45301593,126.9174651
14933,서울특별시 금천구 금하로30길 34,37.4489277,126.9153463
14934,서울특별시 영등포구 당산로42길 7,37.53066658,126.9003635
14935,서울특별시 영등포구 당산로42길 13,37.53109883,126.9019165
14936,서울특별시 구로구 경인로 662,37.50812307,126.888213
14937,서울특별시 구로구 신도림로 105,37.51215759,126.8853091
14938,서울특별시 용산구 새창로 70,37.53860305,126.9549435
14939,서울특별시 성동구 매봉길 24,37.54725596,127.0157551
14940,서울특별시 강북구 삼양로74길 8,37.62914095,127.0183516
14941,서울특별시 성동구 난계로 100,37.5615293,127.0246515
14942,서울특별시 성동구 고산자로 177,37.55573045,127.0335776
14943,서울특별시 용산구 장문로 47,37.52726094,126.9956057
14944,서울특별시 성동구 난계로 114-31,37.56123125,127.0259523
14945,서울특별시 동대문구 답십리로23길 30,37.57671631,127.0497821
14946,서울특별시 성북구 서경로 28,37.60615015,127.0159232
14947,서울특별시 용산구 이촌로 224,37.52014579,126.9718771
14948,서울특별시 동대문구 답십리로66길 20,37.5717569,127.0676602
14949,서울특별시 성북구 아리랑로 75,37.59883026,127.0136255
14950,서울특별시 용산구 보광로 14,37.52584904,127.0022205
14951,서울특별시 광진구 능동로 19,37.53315344,127.0672364
14952,서울특별시 광진구 뚝섬로34길 67,37.53168537,127.0682915
14953,서울특별시 성동구 매봉길 24,37.54725596,127.0157551
14954,서울특별시 동대문구 한천로58길 47,37.60075075,127.0687695
14955,서울특별시 용산구 이촌로69길 30,37.52100334,126.9725496
14956,서울특별시 동대문구 고미술로 11,37.5700539,127.0504259
14957,서울특별시 중구 다산로 32,37.54715055,127.0057062
14958,서울특별시 동대문구 한천로58길 47,37.60075075,127.0687695
14959,서울특별시 성동구 마장로42길 16,37.56504066,127.0460385
14960,서울특별시 성동구 무학로 33,37.56916416,127.0263479
14961,서울특별시 용산구 이촌로87길 13,37.51899266,126.9776769
14962,서울특별시 성동구 왕십리로 410,37.56660293,127.0240825
14963,서울특별시 종로구 혜화로3길 5,37.58596461,127.0002305
14964,서울특별시 성북구 동소문로34길 24,37.59899275,127.0231395
14965,서울특별시 동대문구 사가정로 190,37.57734724,127.064387
14966,서울특별시 동대문구 정릉천동로 36,37.57547229,127.0371123
14967,서울특별시 성북구 화랑로 210-26,37.60723717,127.05364
14968,서울특별시 성북구 오패산로3길 17,37.60459386,127.0345453
14969,서울특별시 성동구 금호로 100,37.55453147,127.0261866
14970,서울특별시 성동구 금호로 100,37.55453147,127.0261866
14971,서울특별시 동대문구 전농로10길 20,37.57460947,127.0601291
14972,서울특별시 중랑구 신내로 127,37.61086744,127.0956519
14973,서울특별시 중랑구 신내로 127,37.61086744,127.0956519
14974,서울특별시 중랑구 신내로17길 41,37.61469445,127.0937736
14975,서울특별시 성북구 길음로 74,37.60928966,127.0210339
14976,서울특별시 중랑구 신내로19길 42,37.61410176,127.0910347
14977,서울특별시 중랑구 신내로 128,37.60894053,127.0978091
14978,서울특별시 성동구 고산자로4길 34,37.55265337,127.03686
14979,서울특별시 성동구 고산자로4길 34,37.55265337,127.03686
14980,서울특별시 성동구 고산자로4길 34,37.55265337,127.03686
14981,서울특별시 성동구 독서당로62길 43,37.55190095,127.0335265
14982,서울특별시 성동구 독서당로62길 43,37.55190095,127.0335265
14983,서울특별시 성동구 고산자로 160,37.55433983,127.0348842
14984,서울특별시 중구 퇴계로90길 74,37.56103798,127.0209858
14985,서울특별시 중구 퇴계로90길 74,37.56103798,127.0209858
14986,서울특별시 중구 왕십리로39길 30,37.56370985,127.0257085
14987,서울특별시 중구 동호로10길 30,37.5551916,127.0163594
14988,서울특별시 중구 청구로1길 23,37.55853588,127.0184475
14989,서울특별시 중구 다산로 32,37.54715055,127.0057062
14990,서울특별시 중구 다산로 32,37.54715055,127.0057062
14991,서울특별시 중구 다산로 32,37.54715055,127.0057062
14992,서울특별시 중구 다산로 32,37.54715055,127.0057062
14993,서울특별시 성동구 금호로 15,37.54384751,127.0227642
14994,서울특별시 성동구 금호로 15,37.54384751,127.0227642
14995,서울특별시 성동구 금호로 17,37.54688262,127.0240727
14996,서울특별시 성동구 독서당로 272,37.54533003,127.0179254
14997,서울특별시 성북구 보문로29다길 31,37.58417735,127.0126186
14998,서울특별시 용산구 후암로 71-1,37.55198817,126.975661
14999,서울특별시 동대문구 제기로 131,37.58802816,127.0492262
15000,서울특별시 성북구 종암로24가길 53,37.60084117,127.0379642
15001,서울특별시 동대문구 제기로 131,37.58802816,127.0492262
15002,서울특별시 성동구 둘레15길 7,37.53525057,127.054546
15003,서울특별시 동대문구 장안벚꽃로 107,37.57105683,127.0751137
15004,서울특별시 동대문구 장한로14길 81,37.56681812,127.0721804
15005,서울특별시 동대문구 장안벚꽃로 167,37.5750721,127.0742821
15006,서울특별시 동대문구 장한로20길 7,37.56898776,127.0703171
15007,서울특별시 성동구 동호로 100,37.55132847,127.0164165
15008,서울특별시 성동구 금호산길 8,37.55004752,127.0204744
15009,서울특별시 성북구 삼선교로23길 23,37.59084601,127.0130175
15010,서울특별시 성북구 삼선교로23길 23,37.59084601,127.0130175
15011,서울특별시 성동구 상원길 63,37.5501345,127.047109
15012,서울특별시 성동구 상원길 63,37.5501345,127.047109
15013,서울특별시 성동구 상원길 63,37.5501345,127.047109
15014,서울특별시 성동구 왕십리로 80,37.54403417,127.0453389
15015,서울특별시 성동구 서울숲2길 32-14,37.54567733,127.0429147
15016,서울특별시 중랑구 숙선옹주로 45,37.61562144,127.0827355
15017,서울특별시 중랑구 신내로21길 16,37.61680164,127.0868849
15018,서울특별시 성동구 무학로 33,37.56916416,127.0263479
15019,서울특별시 성동구 무학봉길 35,37.56060557,127.0268748
15020,서울특별시 성동구 난계로 100,37.5615293,127.0246515
15021,서울특별시 성동구 난계로 114-31,37.56123125,127.0259523
15022,서울특별시 중랑구 신내로21길 16,37.61680164,127.0868849
15023,서울특별시 동대문구 한천로 248,37.58323604,127.071898
15024,서울특별시 동대문구 한천로 248,37.58323604,127.071898
15025,서울특별시 중구 청계천로 400,37.57081055,127.0214639
15026,서울특별시 중구 청계천로 400,37.57081055,127.0214639
15027,서울특별시 성북구 동소문로44길 43,37.60654646,127.030377
15028,서울특별시 성북구 오패산로 46,37.60747384,127.0387095
15029,서울특별시 성북구 오패산로 46,37.60747384,127.0387095
15030,서울특별시 성북구 솔샘로25길 11-11,37.61602264,127.008106
15031,서울특별시 동대문구 고산자로 534,37.58839329,127.0392185
15032,서울특별시 용산구 효창원로 17,37.53443266,126.9501826
15033,서울특별시 성북구 정릉로 305,37.60484714,127.0178033
15034,서울특별시 성북구 정릉로 292,37.60301029,127.0159693
15035,서울특별시 성북구 정릉로 292,37.60301029,127.0159693
15036,서울특별시 성북구 정릉로26길 8,37.60386708,127.0108477
15037,서울특별시 성북구 아리랑로19가길 21,37.60185586,127.0120427
15038,서울특별시 성북구 북악산로 851,37.60025102,127.0183154
15039,서울특별시 성북구 월계로36길 27,37.62144228,127.0463268
15040,서울특별시 성동구 고산자로 164,37.55506876,127.0354241
15041,서울특별시 성동구 행당로 79,37.55820535,127.027507
15042,서울특별시 성동구 행당로 79,37.55820535,127.027507
15043,서울특별시 중구 퇴계로 235,37.5625144,126.9978244
15044,서울특별시 광진구 뚝섬로52마길 56,37.52809073,127.081383
15045,서울특별시 광진구 뚝섬로52마길 56,37.52809073,127.081383
15046,서울특별시 광진구 뚝섬로54길 74,37.52853396,127.0784212
15047,서울특별시 광진구 뚝섬로58길 101,37.52870103,127.0828701
15048,서울특별시 광진구 능동로4길 41,37.53316289,127.0694293
15049,서울특별시 광진구 능동로4길 78,37.53127864,127.070478
15050,서울특별시 광진구 능동로4길 78,37.53127864,127.070478
15051,서울특별시 중구 만리재로33길 21,37.55627298,126.966883
15052,서울특별시 용산구 효창원로 88,37.53665117,126.9590341
15053,서울특별시 성북구 보문사길 111,37.58287311,127.0178911
15054,서울특별시 성동구 금호로 15,37.54384751,127.0227642
15055,서울특별시 종로구 창경궁로 265,37.58587613,126.999602
15056,서울특별시 동대문구 신이문로 9,37.60316294,127.0633541
15057,서울특별시 동대문구 한천로58길 47,37.60075075,127.0687695
15058,서울특별시 동대문구 한천로58길 107,37.6012567,127.0697682
15059,서울특별시 동대문구 한천로63길 10,37.6049031,127.0637064
15060,서울특별시 성북구 돌곶이로8길 22,37.60652448,127.0622612
15061,서울특별시 성동구 행당로 79,37.55820535,127.027507
15062,서울특별시 성동구 왕십리로 241,37.55713709,127.0401853
15063,서울특별시 성동구 왕십리로 241,37.55713709,127.0401853
15064,서울특별시 강북구 삼양로19길 113,37.61705556,127.0177233
15065,서울특별시 중랑구 망우로 346,37.59745248,127.0913696
15066,서울특별시 중랑구 중랑천로12길 13,37.59255197,127.0736042
15067,서울특별시 용산구 이촌로2가길 122,37.52546565,126.9544787
15068,서울특별시 강북구 삼양로19길 113,37.61705556,127.0177233
15069,서울특별시 강북구 솔샘로 174,37.61763836,127.0105997
15070,서울특별시 용산구 이촌로 174,37.52111314,126.9668044
15071,서울특별시 중랑구 겸재로30길 42,37.58715222,127.0841385
15072,서울특별시 강북구 솔샘로 174,37.61763836,127.0105997
15073,서울특별시 강북구 솔샘로 174,37.61763836,127.0105997
15074,서울특별시 강북구 솔샘로 174,37.61763836,127.0105997
15075,서울특별시 강북구 솔샘로 174,37.61763836,127.0105997
15076,서울특별시 강북구 삼양로19길 25,37.61569432,127.021139
15077,서울특별시 강북구 삼양로 256,37.62628401,127.0188996
15078,서울특별시 용산구 이촌로65가길 51,37.5219938,126.9736746
15079,서울특별시 용산구 이촌로 181,37.5221513,126.9706636
15080,서울특별시 중랑구 용마산로 252,37.575176,127.0892225
15081,서울특별시 성동구 독서당로40길 37,37.54185074,127.0178878
15082,서울특별시 동대문구 서울시립대로 31,37.57531055,127.0458645
15083,서울특별시 용산구 이촌로65가길 3,37.52232623,126.9719669
15084,서울특별시 동대문구 전농로 192,37.58280297,127.0554526
15085,서울특별시 동대문구 사가정로 190,37.57734724,127.064387
15086,서울특별시 동대문구 서울시립대로 75,37.57825213,127.0478481
15087,서울특별시 종로구 창신길 140-19,37.57796428,127.0097867
15088,서울특별시 성동구 마장로 271,37.56648427,127.0402766
15089,서울특별시 성동구 마장로42길 16,37.56504066,127.0460385
15090,서울특별시 성동구 살곶이길 50,37.5696275,127.041524
15091,서울특별시 성동구 마조로 57,37.56298737,127.0398903
15092,서울특별시 성동구 매봉길 15,37.54605985,127.0138472
15093,서울특별시 종로구 송월길 99,37.5708611,126.9623523
15094,서울특별시 광진구 능동로19길 35,37.54706801,127.0718499
15095,서울특별시 성북구 길음로 118,37.61132476,127.0208497
15096,서울특별시 성북구 길음로 119,37.61049908,127.0163726
15097,서울특별시 성북구 길음로 119,37.61049908,127.0163726
15098,서울특별시 성북구 길음로 119,37.61049908,127.0163726
15099,서울특별시 성북구 길음로 119,37.61049908,127.0163726
15100,서울특별시 성북구 정릉로 404,37.60429852,127.0287962
15101,서울특별시 성북구 정릉로 402-16,37.60385948,127.0276308
15102,서울특별시 성북구 정릉로 402-16,37.60385948,127.0276308
15103,서울특별시 성북구 아리랑로 75,37.59883026,127.0136255
15104,서울특별시 성북구 아리랑로5길 85,37.5979008,127.0099657
15105,서울특별시 중랑구 답십리로75길 72,37.57497477,127.0810198
15106,서울특별시 동대문구 사가정로 65,37.57550604,127.0496959
15107,서울특별시 동대문구 전농로16길 51,37.57833421,127.0604383
15108,서울특별시 동대문구 고미술로 71,37.56609582,127.0550847
15109,서울특별시 동대문구 답십리로 130,37.57285496,127.0524012
15110,서울특별시 동대문구 고미술로 57,37.56699212,127.0539285
15111,서울특별시 중랑구 동일로 476,37.57368905,127.0803696
15112,서울특별시 성북구 길음로9길 40,37.60584942,127.0209852
15113,서울특별시 성북구 길음로9길 40,37.60584942,127.0209852
15114,서울특별시 성북구 숭인로2길 61,37.60935341,127.0249739
15115,서울특별시 성북구 길음로9길 50,37.60269651,127.020948
15116,서울특별시 성북구 길음로9길 50,37.60269651,127.020948
15117,서울특별시 성북구 길음로 33,37.60508329,127.0220786
15118,서울특별시 성북구 길음로 33,37.60508329,127.0220786
15119,서울특별시 성동구 금호로 100,37.55453147,127.0261866
15120,서울특별시 서대문구 증가로 191,37.57849683,126.9173923
15121,서울특별시 은평구 가좌로7나길 30,37.58400937,126.9189386
15122,서울특별시 은평구 백련산로 36,37.58845665,126.9247675
15123,서울특별시 서대문구 응암로 28,37.57627162,126.9098441
15124,서울특별시 서대문구 통일로34길 43,37.58833366,126.9488077
15125,서울특별시 서대문구 통일로39가길 57,37.58990008,126.9409853
15126,서울특별시 도봉구 방학로12길 53,37.66334206,127.0285482
15127,서울특별시 서대문구 통일로25길 30,37.58327722,126.9472325
15128,서울특별시 서대문구 통일로25길 30,37.58327722,126.9472325
15129,서울특별시 서대문구 통일로25길 30,37.58327722,126.9472325
15130,서울특별시 도봉구 마들로 616,37.66510797,127.0469105
15131,서울특별시 노원구 상계로23다길 13-8,37.65984743,127.0689041
15132,서울특별시 서대문구 통일로 348,37.58126155,126.9528345
15133,서울특별시 은평구 통일로 660,37.60590087,126.9361429
15134,서울특별시 은평구 통일로 660,37.60590087,126.9361429
15135,서울특별시 은평구 통일로 630,37.60284497,126.9359558
15136,서울특별시 서대문구 세검정로 106-8,37.59638673,126.9500912
15137,서울특별시 서대문구 거북골로 154,37.57656261,126.9137835
15138,서울특별시 도봉구 도당로6길 14-5,37.66116072,127.0357528
15139,서울특별시 노원구 중계로 233,37.64989957,127.0757054
15140,서울특별시 노원구 한글비석로14길 37,37.65922434,127.0766001
15141,서울특별시 노원구 동일로207길 18,37.64457282,127.0620514
15142,서울특별시 노원구 동일로207길 18,37.64457282,127.0620514
15143,서울특별시 노원구 섬밭로 285,37.64088105,127.0625338
15144,서울특별시 노원구 노원로22길 53,37.64784506,127.0729868
15145,서울특별시 노원구 한글비석로 530,37.66693298,127.0591649
15146,서울특별시 노원구 노원로 564,37.66165211,127.0561247
15147,서울특별시 노원구 한글비석로54길 92,37.66858528,127.0611197
15148,서울특별시 노원구 동일로228길 23,37.66986967,127.0587381
15149,서울특별시 노원구 동일로227길 86,37.67041003,127.05273
15150,서울특별시 노원구 동일로227길 86,37.67041003,127.05273
15151,서울특별시 노원구 동일로214길 21,37.65043289,127.0627594
15152,서울특별시 도봉구 해등로 295,37.65709893,127.0243731
15153,서울특별시 은평구 갈현로11길 46,37.60479886,126.9054022
15154,서울특별시 노원구 노해로 508,37.65470356,127.066191
15155,서울특별시 서대문구 포방터10길 33,37.60245509,126.9513927
15156,서울특별시 서대문구 모래내로 309,37.57889644,126.9314927
15157,서울특별시 서대문구 세검정로1길 95,37.59591997,126.9456918
15158,서울특별시 서대문구 연희로 377,37.59100664,126.9393203
15159,서울특별시 강북구 삼각산로 143-1,37.64265579,127.019639
15160,서울특별시 노원구 동일로227길 85,37.66650611,127.0522703
